BusinessName,FHRSID,BusinessType,RatingDate,RatingValue,AddressLine1,AddressLine2,AddressLine3,Hygiene,Structural,ConfidenceInManagement,Longitude,Latitude
1 Lexham Gardens Hotel,333767,Hotel/bed & breakfast/guest house,2016-08-04,5,1 Lexham Gardens,LONDON,W8 5JL,5,5,5,,
108 Golborne Garage,865458,Restaurant/Cafe/Canteen,,AwaitingInspection,108 Golborne Road,LONDON,W10 5PS,,,,-0.20889000000000,51.52184000000000
151 Club,334833,Restaurant/Cafe/Canteen,2013-05-28,4,151-153 King's Road,LONDON,SW3 5TX,5,5,10,-0.16735700000000,51.48781800000000
202 Cafe,334186,Restaurant/Cafe/Canteen,2016-02-09,3,202-204 Westbourne Grove,LONDON,W11 2RH,10,10,10,-0.20047100000000,51.51454400000000
240 Project,766573,Restaurant/Cafe/Canteen,2015-06-22,5,Latymer Christian Centre,116 Bramley Road,"LONDON, W10 6SU",0,5,0,-0.21733700000000,51.51554800000000
26 Grains,653936,Other catering premises,2014-03-19,5,,,,5,0,5,,
4  1,499780,Restaurant/Cafe/Canteen,2014-08-13,5,108 Golborne Road,LONDON,W10 5PS,5,5,5,-0.20889000000000,51.52184000000000
54 Boutique Hotel,640138,Hotel/bed & breakfast/guest house,2014-02-25,5,54 Queen's Gate,LONDON,SW7 5JW,5,5,5,-0.17975400000000,51.49625700000000
606 Club,334656,Restaurant/Cafe/Canteen,2015-06-18,4,Basement,90 Lots Road,"LONDON,",10,5,5,-0.18103200000000,51.47865200000000
A  Food and Wine,334404,Retailers - other,2015-08-18,3,6 Stratford Road,LONDON,W8 6QD,10,10,10,-0.19299600000000,51.49657900000000
A Moore & Co,334564,Retailers - other,2014-02-28,5,25E Lowndes Street,LONDON,,0,0,0,-0.15791500000000,51.49874100000000
A P Food Express,455530,Retailers - other,2016-02-18,2,48 Harrington Road,LONDON,SW7 3ND,5,15,5,-0.17786700000000,51.49409700000000
A.K.Foods,334396,Retailers - other,2015-10-14,3,373 Portobello Road,LONDON,W10 5SG,5,10,10,-0.21151700000000,51.52211400000000
A.S Food & Wine,333702,Retailers - other,2015-11-09,3,38-40 Thurloe Street,LONDON,SW7 2LT,5,10,10,-0.17371000000000,51.49430200000000
Abbey Court Hotel,334881,Hotel/bed & breakfast/guest house,2016-07-14,3,20 Pembridge Gardens,LONDON,W2 4DU,5,10,10,-0.19679400000000,51.50947900000000
ABC Drugstores,640134,Retailers - other,2014-03-03,5,196-198 Portobello Road,LONDON,W11 1LA,0,0,0,-0.20522300000000,51.51646900000000
Accent Catering Services,586635,School/college/university,2015-11-24,5,Southbank International School,36-38 Kensington Park Road,"LONDON, W11 3BU",,,,-0.19804500000000,51.51028000000000
Accent Catering Services Ltd,333586,School/college/university,2016-02-17,5,Hawkesdown House School,27 Edge Street,"LONDON, W8 7PN",0,5,0,-0.19607500000000,51.50761500000000
Acklam 242 Cafe,774024,Restaurant/Cafe/Canteen,2015-09-03,5,Westbourne Studios,242 Acklam Road,"LONDON, W10 5JJ",5,0,5,-0.20311000000000,51.52146400000000
Acorn Nursery School,335016,School/college/university,2015-06-10,5,Basement/ground Floor Flat,2 Lansdowne Crescent,"LONDON, W11 2NH",5,5,5,-0.20658800000000,51.51108600000000
Addies Thai Restaurant & Bar,334288,Restaurant/Cafe/Canteen,2014-12-10,5,BASEMENT GROUND AND FIRST FLOOR PART,121 Earl's Court Road,"LONDON, SW5 9RL",0,5,5,-0.19477600000000,51.49382800000000
Admiral Codrington,334806,Restaurant/Cafe/Canteen,2015-08-19,5,17 Mossop Street,LONDON,SW3 2LY,0,5,5,-0.16600700000000,51.49382200000000
Adoratrices Convent,334906,Hotel/bed & breakfast/guest house,2016-01-26,4,38-39 Kensington Square,LONDON,W8 5HP,5,5,10,-0.19043000000000,51.50098200000000
Aglio E Olio,334874,Restaurant/Cafe/Canteen,2016-02-01,4,194 Fulham Road,LONDON,,5,5,10,-0.18106300000000,51.48619800000000
Akesson's,744678,Retailers - other,2015-02-11,4,15B Blenheim Crescent,LONDON,W11 2EE,5,10,5,-0.20544200000000,51.51568100000000
Al Dar II,334467,Restaurant/Cafe/Canteen,2016-01-13,4,74 King's Road,LONDON,SW3 4TZ,5,10,5,,
Al Hana Kitchen,897651,Other catering premises,,AwaitingInspection,,,,,,,,
AL Nahrein,333747,Retailers - other,2016-06-17,3,17A Hogarth Place,LONDON,SW5 0QT,10,5,10,-0.19298200000000,51.49291000000000
Al Safi,333890,Retailers - other,2016-01-25,2,294 Kensington High Street,LONDON,W14 8NZ,15,15,10,-0.20200400000000,51.49830000000000
Al.Baraka Cafe,334223,Restaurant/Cafe/Canteen,2016-01-29,3,330 Portobello Road,LONDON,W10 5RU,10,10,10,-0.21003100000000,51.52141700000000
Aladino's Restaurant,782451,Restaurant/Cafe/Canteen,2015-09-02,5,38C Kensington Church Street,LONDON,W8 4BX,5,5,5,-0.19280500000000,51.50431000000000
Alberts,695897,Restaurant/Cafe/Canteen,2014-09-24,5,92B Old Brompton Road,LONDON,SW7 3LQ,5,5,5,-0.17727000000000,51.49281100000000
Alerma,736315,Restaurant/Cafe/Canteen,2015-03-31,5,232-236 Brompton Road,LONDON,SW3 2BB,5,0,5,-0.16973200000000,51.49613700000000
Alexa's Bakery,507880,Other catering premises,2015-11-05,5,,,,0,0,0,,
Alice in the Kitchen,904409,Other catering premises,,AwaitingInspection,,,,,,,,
Allen Hall College,334897,School/college/university,2014-11-11,5,Allen Hall,28-32 Beaufort Street,"LONDON, SW3 5AA",5,5,0,-0.17451600000000,51.48385600000000
Alounak,463325,Restaurant/Cafe/Canteen,2016-05-23,1,10 Russell Gardens,LONDON,W14 8EZ,10,15,20,-0.21122800000000,51.50005100000000
Amathus,668403,Retailers - other,2014-11-10,Exempt,Ground Floor,203 Brompton Road,"LONDON, SW3 1LA",,,,-0.16682500000000,51.49750400000000
Ambassador Hotel,334744,Hotel/bed & breakfast/guest house,2016-01-07,4,Hotel,16 Collingham Road,"LONDON, SW5 0LX",10,0,10,-0.18802500000000,51.49367000000000
American Food Store,334649,Retailers - other,2016-06-14,4,2 Ladbroke Grove,LONDON,W11 3BG,5,10,5,-0.20316600000000,51.50831800000000
Amir Foods,605934,Retailers - other,2015-06-22,4,5 World's End Place,LONDON,,5,10,5,-0.17988300000000,51.48147600000000
Amorino,771154,Restaurant/Cafe/Canteen,2015-09-07,5,67A King's Road,LONDON,SW3 4NT,5,0,5,-0.16362100000000,51.48940500000000
Amsterdam Hotel,334629,Hotel/bed & breakfast/guest house,2016-08-11,4,7 Trebovir Road,LONDON,SW5 9LS,0,10,10,-0.19454600000000,51.49235000000000
Anar Persian kitchen,837791,Restaurant/Cafe/Canteen,2015-12-10,4,349 Portobello Road,LONDON,W10 5SA,5,10,5,-0.21053800000000,51.52134300000000
Ancillary Food & Beverage to Exisiting Gym,783618,Restaurant/Cafe/Canteen,2015-08-26,5,45 Phillimore Walk,LONDON,W8 7RZ,5,5,5,-0.19844200000000,51.49949500000000
ANDREAS,568942,Retailers - other,2013-09-02,5,4 Cale Street,LONDON,SW3 3QU,5,5,5,-0.16689600000000,51.49070700000000
Andrews Garage,333606,Retailers - other,2014-09-16,4,22 St Mark's Road,LONDON,W11 1UF,5,10,5,-0.21292500000000,51.51635300000000
Anglesea Arms,334311,Pub/bar/nightclub,2016-01-06,5,Public House,15 Selwood Terrace,"Onslow Gardens, LONDON, SW7 3QN",5,5,0,-0.17715600000000,51.49026500000000
Ann Summers,333955,Retailers - other,2015-03-13,Exempt,104 Kensington High Street,LONDON,W8 4SG,,,,-0.19226000000000,51.50171100000000
Antelope,334532,Pub/bar/nightclub,2015-11-26,5,Public House,22-24 Eaton Terrace,"LONDON,",0,5,0,-0.15586500000000,51.49419400000000
Apadana,803749,Restaurant/Cafe/Canteen,2015-12-02,5,351 Kensington High Street,LONDON,W8 6NW,5,5,0,-0.20306100000000,51.49743500000000
Apero Restaurant and Bar,489730,Restaurant/Cafe/Canteen,2016-05-04,5,Ampersand Hotel,2-10 Harrington Road,"LONDON, SW7 3ER",5,5,0,-0.17534900000000,51.49437200000000
Apostrophe,333679,Restaurant/Cafe/Canteen,2016-06-02,3,138 Notting Hill Gate,LONDON,W11 3QG,10,10,5,-0.19983000000000,51.50886000000000
April's Cafe at Boutique 1,896235,Restaurant/Cafe/Canteen,2016-08-22,5,127-128 Sloane Street,LONDON,,5,0,0,-0.15854300000000,51.49387600000000
Aquika Seasoning,738976,Retailers - other,2014-09-16,Exempt,,,,,,,,
Arancina,333628,Restaurant/Cafe/Canteen,2015-05-19,4,Ground Floor,19 Pembridge Road,"LONDON, W11 3HG",5,10,5,-0.19760800000000,51.51040800000000
Arcadia Restaurant,333989,Restaurant/Cafe/Canteen,2015-06-09,3,Basement And Ground Floor Brasenose House,35 Kensington High Street,"LONDON, W8 5EB",10,10,10,-0.18907800000000,51.50201300000000
Arco Bars Ltd,333494,Restaurant/Cafe/Canteen,2015-07-27,5,7 Pavilion Road,LONDON,,5,5,5,-0.16047600000000,51.50026500000000
Argan Tree Cafe,803750,Restaurant/Cafe/Canteen,2016-03-07,2,130 Bramley Road,LONDON,W10 6TJ,0,15,10,-0.21719700000000,51.51581600000000
Ariadne's Nectar Bar,333402,Pub/bar/nightclub,2016-04-27,2,Public House The British Volunteer,274 Latimer Road,"LONDON, W10 6QW",10,15,10,-0.22461000000000,51.51865300000000
Ark Brunel Academy,853755,School/college/university,2016-03-03,5,Middle Row Primary School,Middle Row,LONDON,5,0,0,,
Aroma Italia,815011,Restaurant/Cafe/Canteen,2015-10-05,5,Ground Floor,24 Bute Street,"LONDON, SW7 3EX",0,5,5,-0.17618100000000,51.49373800000000
Art Muay,333440,Retailers - other,2015-07-29,3,8 Hogarth Road,LONDON,SW5 0PT,10,10,10,-0.19253900000000,51.49283100000000
Artisan Bistro,850664,Restaurant/Cafe/Canteen,2016-04-19,3,Ground Floor,14 Hollywood Road,"LONDON,",10,10,10,-0.18461400000000,51.48599200000000
Ashbee's Wine Bar,334723,Pub/bar/nightclub,2016-03-29,4,22-24 Hogarth Place,LONDON,SW5 0QY,5,5,10,-0.19255300000000,51.49320900000000
Ashburn Hotel,333798,Hotel/bed & breakfast/guest house,2015-11-27,5,111 Cromwell Road,LONDON,SW7 4DP,5,5,5,-0.18630800000000,51.49447100000000
Ashburnham Primary School,333477,School/college/university,2015-11-16,5,17 Blantyre Street,LONDON,,5,5,5,-0.17792400000000,51.48183200000000
ASK,334910,Restaurant/Cafe/Canteen,2015-04-20,5,Units 23 To 24 Gloucester Road Arcade,128 Gloucester Road,"LONDON, SW7 4SF",5,5,0,-0.18355500000000,51.49450900000000
Aster House Hotel,334488,Hotel/bed & breakfast/guest house,2016-02-01,5,Astor House Hotel,3 Sumner Place,"LONDON, SW7 3EE",0,0,0,-0.17584400000000,51.49279700000000
Astrum Education Limited,734289,School/college/university,2015-01-06,5,Princess Beatrice House,192 Finborough Road,"LONDON,",5,0,5,-0.19244000000000,51.48840500000000
Aubaine,333557,Restaurant/Cafe/Canteen,2016-01-27,5,260-262 Brompton Road,LONDON,SW3 2AS,5,5,5,-0.16921000000000,51.49406100000000
Aubaine,605933,Restaurant/Cafe/Canteen,2015-10-26,5,37-39 Kensington High Street,LONDON,W8 5ED,5,5,5,-0.18927700000000,51.50207900000000
Aux Merveilleux De Fred,615443,Takeaway/sandwich shop,2016-02-09,4,88 Old Brompton Road,LONDON,SW7 3LQ,5,0,10,-0.17727000000000,51.49281100000000
Aux Saveurs Du Liban,879052,Restaurant/Cafe/Canteen,2016-06-06,1,262 Kensington High Street,LONDON,W8 6ND,10,15,20,-0.20055800000000,51.49879100000000
Avondale Park Primary School,853757,School/college/university,2016-03-07,5,Sirdar Road,LONDON,W11 4EE,5,5,5,-0.21381000000000,51.51066500000000
Awesome 5,609412,Retailers - other,2015-10-26,1,264 Kensington High Street,LONDON,W8 6ND,5,10,20,-0.20055800000000,51.49879100000000
Azteca,333705,Pub/bar/nightclub,2016-06-28,5,329 King's Road,LONDON,SW3 5ES,0,0,0,-0.17653700000000,51.48372600000000
Bacchus Lounge,653953,Restaurant/Cafe/Canteen,2016-02-29,3,154 Fulham Road,LONDON,,10,10,10,-0.18019200000000,51.48672400000000
Bagel Bakery Bar,899255,Manufacturers/packers,2016-07-28,5,Ground Floor,236D Fulham Road,"LONDON,",0,5,5,-0.18225900000000,51.48545200000000
Baglioni Hotel,333933,Restaurant/Cafe/Canteen,2016-04-15,5,60 Hyde Park Gate,LONDON,SW7 5BB,5,5,5,-0.18473300000000,51.50147800000000
Bahar Patisserie,334437,Retailers - other,2015-01-05,3,Shop,349 Kensington High Street,"LONDON, W8 6NW",10,10,10,-0.20306100000000,51.49743500000000
Baker & Spice,333866,Restaurant/Cafe/Canteen,2016-04-25,5,47 Denyer Street,LONDON,SW3 2LX,5,5,5,-0.16472100000000,51.49392800000000
Balance Oriental Health Clinic,333844,Retailers - other,2014-06-17,5,33 Old Brompton Road,LONDON,SW7 3HZ,5,0,5,-0.17413500000000,51.49340000000000
Balans,568953,Restaurant/Cafe/Canteen,2015-03-03,5,187 Kensington High Street,LONDON,W8 6SH,5,5,0,-0.19522500000000,51.49995000000000
Bandol,768662,Restaurant/Cafe/Canteen,2015-11-10,5,6 Hollywood Road,LONDON,,5,5,5,-0.18461400000000,51.48599200000000
Bar Japan,334295,Restaurant/Cafe/Canteen,2015-12-02,4,Restaurant,251 Old Brompton Road,"LONDON, SW5 9HP",5,10,5,-0.19069700000000,51.48914300000000
Baristas Fusion,695817,Restaurant/Cafe/Canteen,2016-07-07,3,72 Lancaster Road,LONDON,W11 1QR,5,10,10,-0.20529500000000,51.51795400000000
Barlby Road Primary School,853756,School/college/university,2016-02-24,5,Barlby Primary School,Barlby Road,"LONDON, W10 6BH",0,5,0,-0.21650000000000,51.52333200000000
barrys food and veg,746273,Retailers - other,2015-03-31,4,77 Barlby Road,LONDON,W10 6AW,5,10,5,-0.22229200000000,51.52230400000000
Barts,756208,Pub/bar/nightclub,2015-11-03,5,Ground Floor Rear and First Floor,Chelsea Cloisters,"Sloane Avenue, LONDON, SW3 3EL",5,5,5,-0.16744800000000,51.49237000000000
Barts London Ltd,333881,Restaurant/Cafe/Canteen,2015-07-08,4,Residents Bar Chelsea Cloisters,Sloane Avenue,"LONDON, SW3 3DW",5,10,5,-0.16744800000000,51.49237000000000
Bassett House School,334869,School/college/university,2015-11-11,5,60 Bassett Road,LONDON,W10 6JP,5,0,5,-0.21761900000000,51.51829500000000
Bateel International UK Limited,334209,Retailers - other,2016-02-22,5,Harrods,87-135 Brompton Road,"LONDON,",0,0,0,-0.16305300000000,51.49960300000000
Baywood Chemist,499790,Retailers - other,2013-01-04,Exempt,Ground Floor,239 Westbourne Grove,"LONDON, W11 2SE",,,,-0.20038300000000,51.51422800000000
Beach Blanket Babylon,333721,Pub/bar/nightclub,2016-06-09,4,45 Ledbury Road,LONDON,W11 2AA,,,,-0.19928200000000,51.51400400000000
Beaufort House,334057,Pub/bar/nightclub,2016-02-10,5,354 King's Road,LONDON,SW3 5UZ,0,0,0,-0.17673400000000,51.48420600000000
Beaver Hotel,334616,Hotel/bed & breakfast/guest house,2016-01-18,4,57-59 Philbeach Gardens,LONDON,SW5 9ED,5,0,10,-0.20039800000000,51.49152200000000
Beaver Lodge,785664,Other catering premises,2015-09-04,5,Basement,266-266A Fulham Road,"LONDON,",0,0,0,-0.18409500000000,51.48456300000000
Beirut Express II,333633,Restaurant/Cafe/Canteen,2015-10-12,4,65 Old Brompton Road,LONDON,SW7 3JS,10,5,5,-0.17615000000000,51.49272100000000
Beiteddine,334428,Restaurant/Cafe/Canteen,2015-04-08,3,8 Harriet Street,LONDON,,10,10,10,-0.15928600000000,51.50011100000000
Bella Italia,334442,Restaurant/Cafe/Canteen,2015-06-24,4,60 Old Brompton Road,LONDON,SW7 3DY,5,10,5,-0.17648900000000,51.49323900000000
Bellavista Ristorante,334695,Restaurant/Cafe/Canteen,2015-06-24,3,132 Cromwell Road,LONDON,SW7 4HA,10,10,10,,
Belvedere Restaurant,526118,Restaurant/Cafe/Canteen,2015-08-11,5,Restaurant,Holland Park,"LONDON, W8 6LU",5,5,5,-0.20362300000000,51.50147200000000
Benihana Restaurant,334802,Restaurant/Cafe/Canteen,2016-01-19,2,Basement Atlantic Court,77 King's Road,"LONDON, SW3 4NX",10,15,10,-0.16425800000000,51.48896600000000
Ben's Cookies,333650,Restaurant/Cafe/Canteen,2015-11-03,5,9 Pelham Street,LONDON,SW7 2ND,5,5,5,-0.17438000000000,51.49410600000000
Ben's Cookies,446315,Takeaway/sandwich shop,2015-08-11,5,Unit 12 Kensington Arcade,123 Kensington High Street,"LONDON, W8 5SF",0,0,5,-0.19251400000000,51.50075300000000
Benugo,333856,Restaurant/Cafe/Canteen,2015-12-07,5,Natural History Museum,Cromwell Road,"LONDON, SW7 5BD",0,0,0,-0.17690400000000,51.49657300000000
Benugo (Catering at V&A),334937,Restaurant/Cafe/Canteen,2015-02-13,5,Museum,Victoria and Albert,"Cromwell Road, LONDON, SW7 2RL",0,5,0,-0.17254300000000,51.49682900000000
Benugo Limited @ Science Museum,516850,Restaurant/Cafe/Canteen,2015-06-17,5,Museum,Science,"Exhibition Road, LONDON, SW7 2DD",0,0,0,-0.17651400000000,51.49730400000000
Berry's News & Wines,439610,Retailers - other,2015-08-25,1,46B Gloucester Road,LONDON,SW7 4QT,10,5,20,-0.18406300000000,51.49805100000000
Best One,334473,Retailers - other,2015-04-20,4,216-218 Earl's Court Road,LONDON,SW5 9QB,5,10,5,-0.19365900000000,51.49219200000000
Best Western Burns Hotel,334503,Hotel/bed & breakfast/guest house,2016-04-07,4,18-26 Barkston Gardens,LONDON,SW5 0EN,10,5,5,-0.19121000000000,51.49255000000000
Best Western The Cromwell Hotel,333675,Hotel/bed & breakfast/guest house,2015-12-21,5,110-112 Cromwell Road,LONDON,SW7 4ES,5,5,5,-0.18541200000000,51.49526600000000
Better Coffee Corner,771153,Restaurant/Cafe/Canteen,2015-07-15,5,1 Silchester Road,LONDON,W10 6EX,0,0,5,,
Better Price,640132,Retailers - other,2016-02-24,4,493 King's Road,LONDON,,5,10,5,-0.18349100000000,51.48092100000000
Bevington School,334608,School/college/university,2015-09-28,5,Bevington Primary School,Bevington Road,"LONDON, W10 5TW",0,5,5,-0.20881200000000,51.52125400000000
Beyond London,837777,Restaurant/Cafe/Canteen,2015-12-30,4,Basement,1 Kensington High Street,"LONDON, W8 5NP",5,5,10,-0.18829800000000,51.50205500000000
Bibendum,333464,Restaurant/Cafe/Canteen,2016-07-21,2,Michelin House,81 Fulham Road,"LONDON, SW3 6RD",15,10,10,-0.16845500000000,51.49312300000000
Big Easy,333901,Restaurant/Cafe/Canteen,2015-03-24,5,Basement And Ground Floor,332-334 King's Road,"LONDON, SW3 5UR",0,5,0,-0.17457100000000,51.48535000000000
Bill's,640113,Retailers - other,2015-08-11,4,45 Mary Place,LONDON,W11 4PL,5,5,10,-0.21373200000000,51.51117700000000
Bill's Restaurant,586634,Restaurant/Cafe/Canteen,2015-09-24,5,Unit 10,Kensington Arcade,"123 Kensington High Street, LONDON, W8 5SF",5,0,5,-0.19251400000000,51.50075300000000
Billy's BBQ Shack,850665,Restaurant/Cafe/Canteen,2016-03-29,4,254-260 Old Brompton Road,LONDON,SW5 9HR,5,5,10,-0.19225700000000,51.48902300000000
Billy's Steak and Grillhouse,859484,Restaurant/Cafe/Canteen,2016-05-18,4,115 Notting Hill Gate,LONDON,W11 3LB,5,5,10,-0.19892200000000,51.50849500000000
Biscuiteer Baking Company Ltd,579428,Retailers - other,2015-03-11,4,194 Kensington Park Road,LONDON,W11 2ES,5,0,10,-0.20559400000000,51.51547700000000
Bistro Benito,334686,Restaurant/Cafe/Canteen,2014-12-02,4,Ground Floor,166 Earl's Court Road,"LONDON, SW5 9QQ",5,0,10,-0.19515700000000,51.49365400000000
Black and Blue,334519,Restaurant/Cafe/Canteen,2016-07-14,5,215-217 Kensington Church Street,LONDON,W8 7LX,5,5,0,-0.19538000000000,51.50842300000000
Blackbird,334720,Pub/bar/nightclub,2014-10-27,5,Public House,209-211 Earl's Court Road,"LONDON, SW5 9AN",5,5,5,-0.19224100000000,51.49198100000000
Blag Club,668397,Restaurant/Cafe/Canteen,2013-09-24,5,Basement,11 Russell Gardens,"LONDON, W14 8EZ",5,5,5,-0.21122800000000,51.50005100000000
Blakes Hotel,334621,Hotel/bed & breakfast/guest house,2015-03-16,4,33-39 Roland Gardens,LONDON,SW7 3PF,5,10,5,-0.18066800000000,51.48958100000000
Blanche Eatery,334316,Restaurant/Cafe/Canteen,2015-08-03,5,32B Kensington Church Street,LONDON,W8 4HA,5,5,5,-0.19183700000000,51.50400700000000
Blanche Eatery Limited,722293,Other catering premises,2016-07-01,3,237 Portobello Road,LONDON,W11 1LT,10,5,10,,
Blanco & Gomez Wine Merchants,537072,Retailers - other,2013-06-10,Exempt,410 King's Road,LONDON,,,,,-0.17737200000000,51.48339800000000
Blend,746265,Restaurant/Cafe/Canteen,2015-03-24,5,190-192 Westbourne Grove,LONDON,W11 2RH,0,0,0,-0.20047100000000,51.51454400000000
Bliss Pharmacy,759143,Retailers - other,2014-11-13,Exempt,107-109 Gloucester Road,LONDON,SW7 4SS,,,,-0.18212500000000,51.49424400000000
Bliss Spa,333419,Restaurant/Cafe/Canteen,2009-03-16,5,60D Sloane Avenue,LONDON,SW3 3DD,5,0,5,-0.16697900000000,51.49294700000000
Bluebelles,719644,Restaurant/Cafe/Canteen,2016-05-16,4,Ground Floor,320 Portobello Road,"LONDON, W10 5RU",5,0,10,-0.21003100000000,51.52141700000000
Bluebird Chelsea,335002,Restaurant/Cafe/Canteen,2015-12-01,5,350 King's Road,LONDON,SW3 5UU,5,5,5,-0.17572400000000,51.48499000000000
Bo Lang,586642,Restaurant/Cafe/Canteen,2016-06-01,3,Basement And Ground Floor,100 Draycott Avenue,"LONDON, SW3 3AD",10,10,10,-0.16724100000000,51.49358100000000
Bodo's Scholoss,542951,Restaurant/Cafe/Canteen,2016-02-10,5,Alpine Lodge,2A Kensington High Street,"LONDON, W8 4PT",0,5,0,-0.18811900000000,51.50294200000000
Bodyism London - Clean And Lean Cafe,815008,Restaurant/Cafe/Canteen,2015-12-15,5,222-224 Westbourne Grove,#Error,NDON,5,0,5,,
Boltons Hotel (Best Western),843819,Hotel/bed & breakfast/guest house,2016-01-19,4,Hotel,19-21 Penywern Road,"LONDON, SW5 9TT",5,5,10,-0.19304800000000,51.49088800000000
Bombay Brasserie,334655,Restaurant/Cafe/Canteen,2015-11-03,5,Courtfield Close,Courtfield Road,"London, SW7 4QH",5,5,0,-0.18268600000000,51.49392900000000
Bon Apetit (Sat Only),333547,Takeaway/sandwich shop,2016-06-09,5,82C Portobello Road,LONDON,W11 2QD,,,,-0.20175300000000,51.51272900000000
Bonanza Food & Wine,439616,Retailers - other,2015-04-24,3,7-11 South Kensington Station Arcade,LONDON,SW7 2NA,10,5,10,-0.17409100000000,51.49413700000000
Bone Daddies,716737,Restaurant/Cafe/Canteen,2016-07-25,4,First Floor Store,Barkers Arcade,"63-97 Kensington High Street, LONDON, W8 5SF",10,5,5,-0.19251400000000,51.50075300000000
Book & Kitchen,734286,Restaurant/Cafe/Canteen,2016-04-20,4,Ground Floor,31 All Saints Road,"LONDON, W11 1HE",0,5,10,-0.20435500000000,51.51839800000000
Books for Cooks,334960,Other catering premises,2015-05-21,5,Ground Floor,4 Blenheim Crescent,"LONDON, W11 1NN",0,5,5,-0.20560500000000,51.51592700000000
Boom Burgers,619098,Restaurant/Cafe/Canteen,2016-03-22,3,Shop,272 Portobello Road,"LONDON, W10 5TY",10,5,10,-0.20719800000000,51.51903500000000
Boost Juice Bars,623630,Restaurant/Cafe/Canteen,2015-09-24,4,Kensington Arcade,123 Kensington High Street,"LONDON, W8 5SF",5,10,5,-0.19251400000000,51.50075300000000
Boots,334464,Retailers - other,2014-02-27,5,127A-127B Kensington High Street,LONDON,W8 5SF,0,5,0,-0.19251400000000,51.50075300000000
Boots,668436,Retailers - other,2015-03-10,5,96-98 Notting Hill Gate,LONDON,W11 3QA,0,5,0,-0.19784400000000,51.50916200000000
Boots,668445,Retailers - other,2014-11-10,5,Unit 30 To 31 Gloucester Road Arcade,128 Gloucester Road,"LONDON, SW7 4SF",0,0,0,-0.18355500000000,51.49450900000000
Boots The Chemist,333513,Retailers - other,2009-11-25,5,148 King's Road,LONDON,SW3 4UT,5,0,0,-0.16549100000000,51.48911100000000
Boots the Chemist,568952,Retailers - other,2015-06-19,5,228-230 Fulham Road,LONDON,,5,5,0,-0.18225900000000,51.48545200000000
Boots the Chemist,766571,Retailers - other,2015-06-15,5,Chelsea And Westminster Hospital,369 Fulham Road,"LONDON,",0,0,0,-0.18147000000000,51.48427000000000
Boots The Chemist,640133,Retailers - other,2014-02-17,5,Ground Floor,254-260 Earl's Court Road,"LONDON, SW5 9AD",0,5,0,-0.19282600000000,51.49175600000000
Boots The Chemist,510439,Retailers - other,2016-02-25,5,Ground Floor,205 Brompton Road,"LONDON, SW3 1LA",0,5,0,-0.16682500000000,51.49750400000000
Boots The Chemists,334493,Retailers - other,2013-03-27,5,60-62 King's Road,LONDON,SW3 4UD,0,5,0,-0.16026100000000,51.49163700000000
Borgo Vaseppi,859466,Other catering premises,2016-03-16,5,,,,5,5,5,,
Borshtch N Tears,756201,Restaurant/Cafe/Canteen,2015-03-30,4,46 Beauchamp Place,LONDON,SW3 1NX,5,5,10,-0.16486800000000,51.49742800000000
Bosphorous Kebabs,334457,Takeaway/sandwich shop,2015-11-16,3,59 Old Brompton Road,LONDON,SW7 3JS,10,10,10,-0.17615000000000,51.49272100000000
Bottega Friulana,800801,Restaurant/Cafe/Canteen,2015-11-04,5,140 Portobello Road,LONDON,W11 2DZ,5,5,5,-0.20419800000000,51.51469100000000
Bowden Court Hostel,334673,Hotel/bed & breakfast/guest house,2015-01-26,5,Bowden Court,24 Ladbroke Road,"LONDON, W11 3NN",5,5,0,-0.20114100000000,51.50959900000000
Boy's Cafe,334711,Restaurant/Cafe/Canteen,2015-04-21,3,615 Harrow Road,LONDON,W10 4RA,10,10,10,-0.21682200000000,51.52802200000000
Bramley's Big Adventure,334826,Restaurant/Cafe/Canteen,2016-06-21,4,136-142 Bramley Road,LONDON,W10 6SR,0,5,10,-0.21676300000000,51.51623200000000
Brasserie Gustave,668414,Restaurant/Cafe/Canteen,2014-08-14,5,4 Sydney Street,LONDON,SW3 6PP,5,5,0,-0.17141500000000,51.49117300000000
Breakfast Club,333799,Hospitals/Childcare/Caring Premises,2016-06-22,3,Barlby Primary School,Barlby Road,"LONDON, W10 6BH",10,5,10,-0.21650000000000,51.52333200000000
BRGR Co,576891,Restaurant/Cafe/Canteen,2014-12-15,5,127 King's Road,LONDON,SW3 4PW,5,5,0,-0.16643500000000,51.48819000000000
"Brinkleys,The Wine Gallery & The Wine Shop",333432,Restaurant/Cafe/Canteen,2016-07-28,4,47-51 Hollywood Road,LONDON,,0,10,5,-0.18432900000000,51.48628400000000
Brompton Food Market,657543,Restaurant/Cafe/Canteen,2016-04-14,5,Basement And Ground Floor,33 Thurloe Place,"LONDON, SW7 2HQ",0,0,5,-0.17403700000000,51.49476600000000
Brown and Rosie,905458,Restaurant/Cafe/Canteen,,AwaitingInspection,10-12 Exhibition Road,#Error,NDON,,,,,
Brownie Box,334225,Restaurant/Cafe/Canteen,2016-04-11,2,247 Old Brompton Road,LONDON,SW5 9HP,10,15,10,-0.19069700000000,51.48914300000000
BRT Vinyl Cafe,815021,Restaurant/Cafe/Canteen,2015-11-04,5,273 Portobello Road,LONDON,W11 1LR,5,5,5,-0.20679800000000,51.51786000000000
Brutti & Boni,716720,Restaurant/Cafe/Canteen,2014-10-28,5,Basement And Ground Floor,14 Gloucester Road,"LONDON, SW7 4RB",0,0,0,-0.18400400000000,51.49915600000000
Bubbleology,716754,Restaurant/Cafe/Canteen,2014-12-03,4,109-125 Knightsbridge,LONDON,,5,5,10,-0.15981700000000,51.50159400000000
Bubbleology,542958,Restaurant/Cafe/Canteen,2013-06-25,4,23 Cromwell Place,LONDON,SW7 2LD,0,10,5,-0.17439000000000,51.49457300000000
Buggsi Supermarket,668438,Retailers - other,2015-03-12,3,86-90 Bramley Road,LONDON,W10 6UG,5,10,10,-0.21747100000000,51.51396700000000
Builders Arms,334454,Pub/bar/nightclub,2015-08-18,4,Public House,1 Kensington Court Place,"LONDON, W8 5BJ",10,10,0,-0.18827800000000,51.50000400000000
Builders Arms PH,334469,Pub/bar/nightclub,2015-03-09,4,Public House,13 Britten Street,"LONDON, SW3 3TY",0,10,0,-0.16778200000000,51.48907500000000
Bumpkin,535396,Restaurant/Cafe/Canteen,2016-07-25,3,119 Sydney Street,LONDON,SW3 6NR,10,10,5,-0.16977700000000,51.48854800000000
Bumpkin,333813,Restaurant/Cafe/Canteen,2015-09-28,5,Basement To First Floor,102 Old Brompton Road,"LONDON, SW7 3RD",5,5,5,-0.17923300000000,51.49199600000000
Bunch of Grapes,334557,Pub/bar/nightclub,2016-02-09,5,Public House,207 Brompton Road,"LONDON, SW3 1LA",,,,-0.16682500000000,51.49750400000000
Buonasera at the Jam,334623,Restaurant/Cafe/Canteen,2015-11-19,4,289A King's Road,LONDON,SW3 5EW,5,10,5,-0.17356300000000,51.48534300000000
Burger & Lobster,615437,Restaurant/Cafe/Canteen,2015-11-26,5,109-125 Knightsbridge,LONDON,,5,0,0,-0.15981700000000,51.50159400000000
Burger King,335022,Restaurant/Cafe/Canteen,2015-06-17,5,Basement And Ground Floor South,85 Gloucester Road,"LONDON, SW7 4SS",5,5,0,-0.18212500000000,51.49424400000000
Burger King,334950,Restaurant/Cafe/Canteen,2016-05-11,1,Basement Ground And Mezzanine Floor South,250-252 Earl's Court Road,"LONDON, SW5 9AD",0,20,20,-0.19282600000000,51.49175600000000
Burger Sisters,909422,Other catering premises,,AwaitingInspection,,,,,,,,
Burnt Restaurant,867925,Restaurant/Cafe/Canteen,2016-05-12,5,3-5 Thorpe Close,LONDON,W10 5XL,5,5,0,-0.20894700000000,51.51818100000000
Busaba Eathai,334332,Restaurant/Cafe/Canteen,2016-02-19,5,356-360 King's Road,LONDON,SW3 5UZ,0,5,0,-0.17673400000000,51.48420600000000
Byron,334150,Restaurant/Cafe/Canteen,2016-07-21,5,242 Earl's Court Road,LONDON,SW5 9AA,5,5,5,-0.19315000000000,51.49195000000000
Byron,333860,Restaurant/Cafe/Canteen,2015-11-23,5,300 King's Road,LONDON,SW3 5UH,0,0,5,-0.17395300000000,51.48570000000000
Byron,333831,Restaurant/Cafe/Canteen,2016-07-06,4,75 Gloucester Road,LONDON,SW7 4SS,10,10,0,-0.18212500000000,51.49424400000000
Byron,333957,Restaurant/Cafe/Canteen,2016-08-17,5,93-95 Old Brompton Road,LONDON,SW7 3LD,0,0,0,-0.17701000000000,51.49246500000000
Byron Hamburgers Limited,333753,Restaurant/Cafe/Canteen,2015-07-13,5,222 Kensington High Street,LONDON,W8 7RG,5,5,0,-0.19705200000000,51.50002300000000
Ca Puccino Bar,333827,Restaurant/Cafe/Canteen,2016-05-13,5,Harrods,87-135 Brompton Road,"LONDON,",5,0,0,-0.16305300000000,51.49960300000000
Cabman's Shelter,333965,Restaurant/Cafe/Canteen,2015-03-24,5,Street Only Blpu,Pont Street,"LONDON, SW1X 9EN",5,5,5,-0.15727300000000,51.49752500000000
Cabman's Shelter,333727,Restaurant/Cafe/Canteen,2014-11-13,3,Thurloe Place,LONDON,SW7 2RR,10,10,10,-0.16973200000000,51.49613700000000
Cabman's Shelter (Night Shift),334043,Restaurant/Cafe/Canteen,2015-03-19,4,Cab Shelter,Thurloe Place,"LONDON, SW7 2RR",0,10,10,-0.16973200000000,51.49613700000000
Cacciari's,689005,Restaurant/Cafe/Canteen,2015-10-28,3,82 Old Brompton Road,LONDON,SW7 3LQ,10,10,10,-0.17727000000000,51.49281100000000
Cacciari's,583017,Restaurant/Cafe/Canteen,2015-08-03,5,Restaurant,82 Pembroke Road,"LONDON, W8 6NX",5,5,5,-0.20113000000000,51.49451000000000
Cadogan Hall,333527,Restaurant/Cafe/Canteen,2009-05-15,5,5 Sloane Terrace,LONDON,,0,5,0,-0.15758600000000,51.49367300000000
Cafe Beirut,333765,Restaurant/Cafe/Canteen,2016-07-29,4,170 Earl's Court Road,LONDON,SW5 9QQ,,,,-0.19515700000000,51.49365400000000
Cafe Copia,859473,Restaurant/Cafe/Canteen,2016-03-09,5,Health And Fitness Club,Point West,"116 Cromwell Road, LONDON, SW7 4XR",0,5,5,-0.18792000000000,51.49561000000000
Cafe De Fred,333853,Restaurant/Cafe/Canteen,2015-09-29,5,10A Earl's Court Road,LONDON,W8 6EA,5,5,5,-0.19864900000000,51.49861700000000
Cafe de la Paix,744677,Restaurant/Cafe/Canteen,2016-01-21,2,159 King's Road,LONDON,SW3 5TX,10,15,10,-0.16735700000000,51.48781800000000
Cafe Deco,334385,Restaurant/Cafe/Canteen,2016-01-27,2,62 Gloucester Road,LONDON,SW7 4QT,15,10,10,-0.18406300000000,51.49805100000000
Cafe Du Coin,333491,Restaurant/Cafe/Canteen,2016-07-19,2,229 Earl's Court Road,LONDON,SW5 9AQ,10,15,10,-0.19037500000000,51.49000100000000
Cafe Eve,750992,Restaurant/Cafe/Canteen,2015-04-22,5,Unit 15,Portobello Green,"281 Portobello Road, LONDON, W10 5TZ",5,5,5,-0.20749400000000,51.51883300000000
Cafe Floris,334687,Restaurant/Cafe/Canteen,2014-10-13,5,5 Harrington Road,LONDON,SW7 3ES,0,5,0,-0.17516400000000,51.49396500000000
Cafe Forum (Now T/A South Kensington Coffee Limited),334982,Restaurant/Cafe/Canteen,2015-06-16,3,146 Gloucester Road,LONDON,SW7 4SZ,10,10,10,-0.18246500000000,51.49366500000000
Cafe La Liaison,334048,Restaurant/Cafe/Canteen,2015-07-01,4,Unit 6A Gloucester Road Arcade,128 Gloucester Road,"LONDON, SW7 4SF",10,0,10,-0.18355500000000,51.49450900000000
Cafe Le Monde,334997,Restaurant/Cafe/Canteen,2015-03-17,4,56-56A Earl's Court Road,LONDON,W8 6EJ,5,10,5,-0.19831600000000,51.49792900000000
Cafe Nero,333443,Restaurant/Cafe/Canteen,2016-06-29,3,1 Wright's Lane,LONDON,W8 5RY,10,10,5,-0.19182900000000,51.49947500000000
Cafe Nero,333420,Restaurant/Cafe/Canteen,2015-02-12,5,168 Portobello Road,LONDON,W11 2EB,0,5,0,-0.20461100000000,51.51555200000000
Cafe Nero,333478,Restaurant/Cafe/Canteen,2015-02-18,5,174-176 Fulham Road,LONDON,,5,5,5,-0.18019200000000,51.48672400000000
Cafe Nero,334930,Restaurant/Cafe/Canteen,2016-07-19,3,Ground Floor,66 Old Brompton Road,"LONDON, SW7 3LQ",10,10,5,-0.17727000000000,51.49281100000000
Cafe Organic,334943,Restaurant/Cafe/Canteen,2016-08-04,5,71-73 Lots Road,LONDON,,5,5,5,-0.18485900000000,51.47873900000000
Cafe Phillies,334599,Restaurant/Cafe/Canteen,2015-12-21,3,2A Phillimore Gardens,LONDON,W8 7QB,10,5,10,-0.19829700000000,51.49988000000000
Cafe Portico,334246,Restaurant/Cafe/Canteen,2016-08-19,3,St Lukes & Christ Church,Sydney Street,"LONDON, SW3 6NH",5,10,10,-0.16921100000000,51.48973600000000
Cafe Tarte Ltd,334400,Restaurant/Cafe/Canteen,2015-09-16,5,270 Kensington High Street,LONDON,W8 6ND,5,5,5,-0.20055800000000,51.49879100000000
Cafe Tasili,334227,Takeaway/sandwich shop,2015-10-19,4,6 Hogarth Place,LONDON,SW5 0QT,5,10,5,,
Caffe Bartoli,418977,Restaurant/Cafe/Canteen,2016-04-13,3,335 Ladbroke Grove,LONDON,W10 6HA,10,5,10,-0.21375000000000,51.52325400000000
Caffe Concerto,772342,Restaurant/Cafe/Canteen,2015-06-19,5,239 Brompton Road,LONDON,SW3 2EP,0,0,5,-0.16860200000000,51.49665900000000
Caffe Concerto,771157,Restaurant/Cafe/Canteen,2015-08-26,5,88-90 Kensington High Street,LONDON,W8 4SG,5,5,5,-0.19226000000000,51.50171100000000
Caffe Concerto,334347,Restaurant/Cafe/Canteen,2015-06-22,3,Ground floor,52 King's Road,"LONDON, SW3 4UD",10,10,10,-0.16026100000000,51.49163700000000
Caffe Nero,837780,Restaurant/Cafe/Canteen,2016-04-14,5,214 Earl's Court Road,LONDON,SW5 9QB,5,5,0,-0.19365900000000,51.49219200000000
Caffe Nero,335037,Restaurant/Cafe/Canteen,2013-12-30,5,53 Notting Hill Gate,LONDON,W11 3JS,5,5,5,-0.19654600000000,51.50883600000000
Caffe Nero,334051,Restaurant/Cafe/Canteen,2014-11-10,4,Ground Floor,119-121 Gloucester Road,"LONDON, SW7 4TE",5,10,5,-0.18139300000000,51.49309900000000
Caffe Nero,535391,Restaurant/Cafe/Canteen,2013-04-24,5,Unit 13,Kensington Arcade,"123 Kensington High Street, LONDON, W8 5SF",0,0,0,-0.19251400000000,51.50075300000000
Cambio De Tercio,334873,Restaurant/Cafe/Canteen,2015-01-21,5,163 Old Brompton Road,LONDON,SW5 0LJ,5,5,5,-0.18359300000000,51.49065200000000
Camden Coffee House,815012,Restaurant/Cafe/Canteen,2015-10-27,3,155 Ladbroke Grove,LONDON,W10 6HJ,5,10,10,-0.21030900000000,51.51726600000000
Campden Coffee House,899254,Takeaway/sandwich shop,2016-08-12,4,155B Ladbroke Grove,LONDON,W10 6HJ,5,10,5,-0.21030900000000,51.51726600000000
Campden Hill Lawn Tennis Club,333509,Restaurant/Cafe/Canteen,2015-03-30,5,9 Aubrey Walk,LONDON,W8 7JH,5,5,0,-0.20162100000000,51.50619900000000
Candella,489733,Restaurant/Cafe/Canteen,2016-02-05,3,34 Kensington Church Street,LONDON,W8 4HA,10,10,10,-0.19183700000000,51.50400700000000
Candipop UK,798062,Other catering premises,2015-09-02,5,,,,5,5,5,,
Canvas,869771,Restaurant/Cafe/Canteen,2016-05-10,5,Phoenix House,1-5 Wilbraham Place,"LONDON,",5,5,5,-0.15732000000000,51.49419900000000
Canyon Juicery,653947,Restaurant/Cafe/Canteen,2014-03-03,5,Ground Floor Shop Unit,230-236 Westbourne Grove,"LONDON, W11 2RH",5,0,5,-0.20047100000000,51.51454400000000
Capital Hotel,334838,Hotel/bed & breakfast/guest house,2014-12-02,5,22-24 Basil Street,LONDON,SW3 1AT,5,5,5,-0.16167700000000,51.50013000000000
Capote y Toros Ltd,334011,Restaurant/Cafe/Canteen,2016-03-22,5,157 Old Brompton Road,LONDON,SW5 0LJ,0,0,0,-0.18359300000000,51.49065200000000
Ca'Puccino,689004,Restaurant/Cafe/Canteen,2016-04-14,4,25 Basil Street,LONDON,SW3 1BB,10,5,5,-0.16192700000000,51.49856900000000
Caraffini Ltd,334465,Restaurant/Cafe/Canteen,2015-03-31,5,61-63 Lower Sloane Street,LONDON,,5,0,5,-0.15658300000000,51.49033000000000
Cardinal Vaughan School,334463,School/college/university,2014-11-03,5,School Cardinal Vaughan Memorial School,89 Addison Road,"LONDON, W14 8BZ",5,0,0,-0.21175500000000,51.50389900000000
Carluccio's,334006,Restaurant/Cafe/Canteen,2014-10-09,5,3-5 Campden Hill Road,LONDON,W8 7DU,5,5,0,-0.19477500000000,51.50077900000000
Carluccio's Caffe,333553,Restaurant/Cafe/Canteen,2015-02-25,5,1-7 Old Brompton Road,LONDON,SW7 3HZ,0,5,5,-0.17413500000000,51.49340000000000
Carluccio's Caffe,333535,Restaurant/Cafe/Canteen,2015-04-28,5,236 Fulham Road,LONDON,,5,5,0,-0.18225900000000,51.48545200000000
Carpo Knighstbridge Limited,815016,Restaurant/Cafe/Canteen,2015-11-30,5,5 Montpelier Street,LONDON,SW7 1EX,5,0,0,-0.16587400000000,51.49892800000000
Casa Brindisa,333819,Restaurant/Cafe/Canteen,2015-04-21,4,7-9 Exhibition Road,LONDON,,5,5,10,-0.17381600000000,51.49489800000000
Casa Cruz,782445,Restaurant/Cafe/Canteen,2015-09-22,5,Basement Ground And First Floor South,123A Clarendon Road,"LONDON, W11 4JG",5,0,0,-0.21107300000000,51.51211600000000
Casa Manolo,837787,Restaurant/Cafe/Canteen,2016-01-07,5,187 King's Road,LONDON,SW3 5EB,5,5,5,-0.16852400000000,51.48710800000000
Cash & Carry,333725,Retailers - other,2016-04-05,3,Ground Floor,84 Golborne Road,"LONDON, W10 5PS",10,10,10,-0.20889000000000,51.52184000000000
Castle PH,334419,Pub/bar/nightclub,2016-06-24,5,Public House,100 Holland Park Avenue,"LONDON, W11 4UA",5,5,0,-0.20763400000000,51.50683000000000
Caterlink,850661,School/college/university,2016-02-23,5,Golborne Childrens Centre,2A Bevington Road,"LONDON, W10 5TN",0,0,0,-0.20665000000000,51.52052000000000
Caterlink Limited,853747,School/college/university,2016-02-26,5,Park Walk Primary School,Park Walk,"LONDON,",0,5,0,-0.17797500000000,51.48416200000000
Caterlink Limited,853748,School/college/university,2016-02-24,5,School,Oxford Gardens Primary,"Oxford Gardens, LONDON, W10 6NF",0,5,0,-0.21670300000000,51.51740900000000
Caterlink Limited,853745,School/college/university,2016-02-26,5,St Cuthbert With St Matthias School,Warwick Road,"LONDON, SW5 9UE",0,0,0,-0.19365200000000,51.48944900000000
Caterlink Limited,853746,School/college/university,2016-02-29,5,St Thomas Church of England Primary School,Appleford Road,"LONDON, W10 5EF",0,5,0,-0.20852500000000,51.52378600000000
Caterplus,653937,Restaurant/Cafe/Canteen,2016-02-29,5,St Catherines,7 Pembridge Square,"LONDON, W2 4EQ",0,0,0,-0.19548300000000,51.51128400000000
Catholic Charismatic Renewal Centre,535392,Restaurant/Cafe/Canteen,2013-09-23,3,Our Lady Of Dolours Rc Church,Fulham Road,"LONDON,",10,10,5,-0.18409500000000,51.48456300000000
Cath's Cafe,615445,Restaurant/Cafe/Canteen,2015-07-22,5,Third Floor,125-135 Freston Road,"LONDON, W10 6TH",0,5,5,-0.21983600000000,51.51283400000000
Cave Cafe,334679,Restaurant/Cafe/Canteen,2016-04-19,4,Ground Floor Cafe,531-533 King's Road,"LONDON, SW10 0SZ",5,5,10,-0.18527500000000,51.48022900000000
Caviar House & Prunier,333787,Restaurant/Cafe/Canteen,2015-01-26,5,Harrods,87-135 Brompton Road,"LONDON,",0,0,0,-0.16305300000000,51.49960300000000
Certitude Ltd,552044,Hospitals/Childcare/Caring Premises,2015-05-06,Exempt,,,,,,,,
Ceru,913528,Restaurant/Cafe/Canteen,,AwaitingInspection,7-9 Bute Street,LONDON,SW7 3EY,,,,-0.17660400000000,51.49361000000000
Ch!ps,815005,Other catering premises,2015-10-23,5,Portobello Green,281 Portobello Road,"LONDON, W10 5TZ",5,5,5,-0.20749400000000,51.51883300000000
CH&Co. Catering Ltd,334274,Restaurant/Cafe/Canteen,2016-03-01,5,Queen Ann's Orangery,Palace Green,"LONDON, W8 4PZ",5,5,5,-0.18909000000000,51.50607800000000
Chai Wu,734325,Restaurant/Cafe/Canteen,2015-01-26,5,Harrods,87-135 Brompton Road,"LONDON,",5,0,0,-0.16305300000000,51.49960300000000
Chakra,849474,Restaurant/Cafe/Canteen,2016-04-21,5,Ground Floor,33 Holland Street,"LONDON, W8 4LX",5,5,5,-0.19418100000000,51.50267600000000
Chamberlain House Day Centre,746256,Hospitals/Childcare/Caring Premises,2016-07-28,5,St Charles Hospital,Exmoor Street,"LONDON, W10 6DZ",0,0,5,-0.21742800000000,51.52244600000000
Chapati & Karak,635684,Restaurant/Cafe/Canteen,2016-01-15,5,144 Brompton Road,LONDON,SW3 1HY,0,5,0,-0.16602700000000,51.49870500000000
Charlton House Catering,463321,Restaurant/Cafe/Canteen,2016-08-26,5,Carlton Tower Hotel,Cadogan Place,"LONDON,",0,5,0,-0.15910300000000,51.49857900000000
Chatpata,333973,Pub/bar/nightclub,2014-11-24,5,160 Warwick Road,LONDON,W14 8PS,5,5,5,-0.20302000000000,51.49517700000000
Checkmate Bar,507883,Restaurant/Cafe/Canteen,2014-12-03,5,Park International Hotel,117-129 Cromwell Road,"LONDON, SW7 4DS",5,5,5,-0.18665100000000,51.49455700000000
Cheeky Burger,653939,Retailers - other,2015-08-08,4,,,,5,5,10,,
Cheers Ice Cream,840517,Mobile caterer,2016-02-03,5,,,,5,5,5,,
Chegworth Farm Shop,333848,Retailers - other,2015-05-06,4,221 Kensington Church Street,LONDON,W8 7LX,0,5,10,-0.19538000000000,51.50842300000000
Chelsea Adventure Playground,434216,Restaurant/Cafe/Canteen,2015-08-19,4,Royal Hospital,Road,"LONDON, SW3 4SR",0,0,10,-0.15912700000000,51.48688900000000
Chelsea Arts Club,334625,Restaurant/Cafe/Canteen,2014-12-17,5,143-145 Old Church Street,LONDON,SW3 6EB,5,5,5,-0.17466900000000,51.48796800000000
Chelsea Bun Diner,334759,Restaurant/Cafe/Canteen,2015-02-05,4,9A Lamont Road,LONDON,,5,0,10,-0.17784900000000,51.48336000000000
Chelsea Cake Company,734326,Other catering premises,2015-01-20,Exempt,,,,,,,,
Chelsea Cellar,845654,Restaurant/Cafe/Canteen,2016-06-29,5,Basement,9 Park Walk,"LONDON,",5,5,5,-0.17984500000000,51.48602600000000
Chelsea Cinema,335027,Retailers - other,2010-10-08,Exempt,206 King's Road,LONDON,SW3 5XP,,,,-0.16698700000000,51.48843300000000
Chelsea Cloisters Filling Station and Car Park,334014,Retailers - other,2016-08-22,3,Garage Chelsea Cloisters,Sloane Avenue,"LONDON, SW3 3DL",5,10,10,-0.16744800000000,51.49237000000000
Chelsea Food & Wine,334820,Retailers - other,2015-03-17,3,429 King's Road,LONDON,,10,5,10,-0.17799200000000,51.48267000000000
Chelsea Food and Wine,583014,Retailers - other,2015-08-20,5,5 Elystan Street,LONDON,SW3 3NT,0,5,5,-0.16724800000000,51.49125200000000
Chelsea Health Store,333879,Retailers - other,2013-06-03,5,400 King's Road,#Error,ndon,5,0,5,-0.17737100000000,51.48339700000000
Chelsea House Hotel,333835,Hotel/bed & breakfast/guest house,2014-01-10,5,96 Redcliffe Gardens,LONDON,,5,5,5,-0.19011900000000,51.48882900000000
Chelsea Methodist Church,334575,Other catering premises,2015-09-23,5,155A King's Road,LONDON,SW3 5TX,0,0,5,-0.16735700000000,51.48781800000000
Chelsea Newsagents,334713,Retailers - other,2009-10-30,4,Units E And F,369 Fulham Road,"LONDON,",5,10,5,-0.18147100000000,51.48427100000000
Chelsea Pensioner,783614,Pub/bar/nightclub,2015-07-29,4,Public House,358 Fulham Road,"LONDON,",5,5,10,-0.18780200000000,51.48152700000000
Chelsea Pensioners Club,746258,Pub/bar/nightclub,2015-03-19,5,Royal Hospital,Road,"LONDON, SW3 4SR",0,0,0,-0.15912700000000,51.48688900000000
Chelsea Potter,334403,Pub/bar/nightclub,2015-07-21,5,119 King's Road,LONDON,SW3 4PL,5,5,5,-0.16612700000000,51.48833000000000
Chelsea Quarter Cafe,334300,Restaurant/Cafe/Canteen,2016-06-15,1,219 King's Road,LONDON,SW3 5EJ,10,10,20,-0.17118900000000,51.48636700000000
Chelsea Ram PH,455533,Pub/bar/nightclub,2016-02-16,5,Public House,32 Burnaby Street,"LONDON,",5,5,0,-0.18288500000000,51.47912200000000
Chelsea Spice & Grill,334958,Takeaway/sandwich shop,2015-02-17,4,126 Bramley Road,LONDON,W10 6TJ,5,5,10,-0.21719700000000,51.51581600000000
Chelsea Theatre Cafe,576892,Restaurant/Cafe/Canteen,2016-07-15,3,Chelsea Community Centre,7 World's End Place,"LONDON,",5,10,10,-0.17979100000000,51.48160100000000
Chelsea Theatre Co-op,583013,Retailers - other,2013-07-24,5,,,,5,5,5,,
Chepstow House School,814998,School/college/university,2015-09-29,5,108A Lancaster Road,LONDON,W11 1QS,5,0,0,-0.20799900000000,51.51736600000000
Chepstow House School,334259,School/college/university,2015-11-10,5,19 Pembridge Villas,LONDON,W11 3EP,5,5,0,-0.19707300000000,51.51299900000000
Cheyne Family Centre,334933,Hospitals/Childcare/Caring Premises,2015-09-18,5,Day Nursery,10 Thorndike Close,"LONDON,",0,0,5,-0.18385400000000,51.48048600000000
Cheyne News,334558,Retailers - other,2014-02-28,Exempt,419 King's Road,LONDON,,,,,-0.17799200000000,51.48267000000000
Cheyne Walk Brasserie,334350,Restaurant/Cafe/Canteen,2016-03-03,5,Restaurant,50 Cheyne Walk,"LONDON, SW3 5LR",5,5,5,-0.16956000000000,51.48353600000000
Chez Patrick,333716,Restaurant/Cafe/Canteen,2015-02-23,5,7 Stratford Road,LONDON,W8 6RF,0,5,5,-0.19343200000000,51.49682900000000
Chicama,910725,Restaurant/Cafe/Canteen,2016-08-25,5,Restaurant,1-3 Milman's Street,"LONDON,",5,0,0,-0.17538300000000,51.48271000000000
Chilled Eskimo,333519,Pub/bar/nightclub,2009-06-22,4,The,48 Southern Row,"LONDON, W10 5AN",5,5,10,-0.21138000000000,51.52488100000000
Chinese Tea Company,334137,Retailers - other,2011-03-24,5,Unit 14 Portobello Green,281 Portobello Road,"LONDON, W10 5TZ",0,0,5,-0.20749400000000,51.51883300000000
Chisou Restaurant,334060,Restaurant/Cafe/Canteen,2015-08-24,5,31 Beauchamp Place,LONDON,SW3 1NU,5,5,5,-0.16435700000000,51.49724000000000
Chloe Bowler,842223,Other catering premises,2016-02-24,5,,,,5,5,5,,
Choice Newsagents,716716,Retailers - other,2016-07-07,4,110 Golborne Road,LONDON,W10 5PS,0,10,5,-0.20889000000000,51.52184000000000
Chopstix,848131,Takeaway/sandwich shop,2016-02-26,4,133 Ladbroke Grove,LONDON,W11 1PN,5,5,10,-0.20948400000000,51.51624700000000
Chopstix Noodle Bar,850662,Takeaway/sandwich shop,2016-03-11,4,28 Thurloe Street,LONDON,SW7 2LT,0,10,0,-0.17371000000000,51.49430200000000
Christ Church Street French Nursery,815000,Hospitals/Childcare/Caring Premises,2015-06-29,5,Christ Church,Christchurch Street,"LONDON, SW3 4AS",0,5,5,-0.16355800000000,51.48594200000000
Christchurch C of E Primary School,334768,School/college/university,2016-01-20,4,1A Robinson Street,LONDON,SW3 4AA,5,10,5,-0.16432800000000,51.48542400000000
Chucs Bar and Grill,839159,Restaurant/Cafe/Canteen,2016-02-23,5,226 Westbourne Grove,LONDON,W11 2RH,5,5,0,-0.20047100000000,51.51454400000000
Churchill Arms,334562,Pub/bar/nightclub,2008-11-13,4,Public House,119 Kensington Church Street,"LONDON, W8 7LN",0,10,0,-0.19476200000000,51.50656100000000
Churchill Thai Kitchen,333836,Restaurant/Cafe/Canteen,2015-01-22,5,PUBLIC HOUSE,119 Kensington Church Street,"LONDON, W8 7LN",5,5,5,-0.19476200000000,51.50656100000000
Cibo,334421,Restaurant/Cafe/Canteen,2015-09-30,5,3 Russell Gardens,LONDON,W14 8EZ,5,5,0,-0.21122800000000,51.50005100000000
Cineworld,334887,Takeaway/sandwich shop,2016-06-13,5,Cinema,279 King's Road,"LONDON, SW3 5EW",5,5,5,-0.17356300000000,51.48534300000000
Cineworld Cinemas,334870,Restaurant/Cafe/Canteen,2008-10-02,5,142-150 Fulham Road,LONDON,,5,5,5,-0.17944000000000,51.48716200000000
Ciros Pizza Pomodoro,334834,Restaurant/Cafe/Canteen,2016-03-08,5,51 Beauchamp Place,LONDON,SW3 1NY,0,5,0,-0.16540500000000,51.49770600000000
City Continental Kensington,334642,Hotel/bed & breakfast/guest house,2014-06-26,5,11-13 Penywern Road,LONDON,SW5 9TT,0,5,5,-0.19304800000000,51.49088800000000
City Meats,334458,Retailers - other,2016-07-14,3,421 King's Road,LONDON,,5,10,10,-0.17799200000000,51.48267000000000
Clare Gardens Children's Centre,333876,Hospitals/Childcare/Caring Premises,2015-12-18,5,349 Westbourne Park Road,LONDON,W11 1EG,0,0,0,-0.20742400000000,51.51623300000000
Clarke's,334779,Restaurant/Cafe/Canteen,2016-08-04,5,122-124 Kensington Church Street,LONDON,W8 4BH,0,0,5,-0.19440100000000,51.50696000000000
Cloud Inc. Vapes,815007,Restaurant/Cafe/Canteen,2015-12-03,5,321 Portobello Road,#Error,NDON,5,0,5,,
Cockney's Pie & Mash,334925,Restaurant/Cafe/Canteen,2016-08-05,3,314 Portobello Road,LONDON,W10 5RU,5,10,10,-0.21003100000000,51.52141700000000
Coco Cash Express,334255,Retailers - other,2011-08-11,5,70 Old Brompton Road,LONDON,SW7 3LQ,0,5,0,-0.17727000000000,51.49281100000000
Coco Momo,334389,Pub/bar/nightclub,2016-04-27,5,Public House,25 Gloucester Road,"LONDON, SW7 4PL",0,5,0,-0.18359900000000,51.49811600000000
Coconut Man,722298,Retailers - other,2015-06-13,3,,,,10,10,10,,
Coffee Republic,335014,Restaurant/Cafe/Canteen,2015-10-27,4,214 Portobello Road,LONDON,W11 1LA,5,10,5,-0.20522300000000,51.51646900000000
Colbert,507877,Restaurant/Cafe/Canteen,2016-07-11,5,50-52 Sloane Square,LONDON,,5,5,0,-0.15639500000000,51.49284500000000
Collingham Independent Sixth Form College,333637,School/college/university,2015-11-09,5,23 Collingham Gardens,LONDON,SW5 0HL,5,5,5,-0.18870300000000,51.49219600000000
Colville nursery Centre,334354,School/college/university,2015-06-08,5,4-5 Colville Square,LONDON,W11 2BD,0,5,0,-0.20348000000000,51.51572300000000
Colville Primary School,853754,School/college/university,2016-03-24,5,School,,"Lonsdale Road, LONDON, W11 2DF",5,5,0,-0.20366700000000,51.51464700000000
Community Eat Centre,910718,Other catering premises,2016-08-16,5,,,,5,5,5,,
Como Lario Restaurant,334497,Restaurant/Cafe/Canteen,2016-01-13,3,18-22 Holbein Place,LONDON,,10,10,10,-0.15557400000000,51.49035900000000
Compass (Staff Restaurant),334140,Restaurant/Cafe/Canteen,2015-09-21,5,Harrods,87-135 Brompton Road,"LONDON,",5,5,0,-0.16305300000000,51.49960300000000
Compass Contract Services,716719,School/college/university,2016-07-07,5,Holland Park School,Airlie Gardens,"LONDON, W8 7AF",5,5,0,-0.20113200000000,51.50472500000000
Comptoir Libabais,910728,Restaurant/Cafe/Canteen,,AwaitingInspection,77A Gloucester Road,LONDON,SW7 4SS,,,,-0.18212500000000,51.49424400000000
Comptoir Libanais,334328,Restaurant/Cafe/Canteen,2016-02-05,5,1-5 Exhibition Road,LONDON,SW7 2HE,0,0,0,-0.17381600000000,51.49489700000000
Comptoir Libanais,615441,Restaurant/Cafe/Canteen,2015-06-23,5,53 Duke Of York Square,LONDON,SW3 4LY,0,5,0,-0.15940400000000,51.49145300000000
Continental Pantry,837784,Restaurant/Cafe/Canteen,2016-06-03,5,57 Ledbury Road,LONDON,W11 2AA,0,0,5,-0.19928200000000,51.51400400000000
Cookes Consolidated,626838,Restaurant/Cafe/Canteen,2016-07-05,5,National Heart and Lung Institute,Guy Scaddling Building,"Dovehouse Street, LONDON, SW3 6LY",0,5,0,-0.17086600000000,51.48975200000000
Co-Operative,334061,Retailers - supermarkets/hypermarkets,2016-07-11,5,471-487 King's Road,LONDON,,0,0,0,-0.18078500000000,51.48160700000000
Copthorne Tara Hotel,334601,Hotel/bed & breakfast/guest house,2016-04-26,5,London Tara Hotel,Scarsdale Place,"LONDON, W8 5SR",5,5,0,-0.19859800000000,51.49845500000000
Coral,334877,Retailers - other,2015-02-12,Exempt,327 Portobello Road,LONDON,W10 5SA,,,,-0.21053800000000,51.52134300000000
Core Collective,903089,Restaurant/Cafe/Canteen,,AwaitingInspection,45 Phillimore Walk,#Error,ndon W8 7RZ,,,,-0.19844200000000,51.49949500000000
Corner Cafe,837774,Restaurant/Cafe/Canteen,2015-11-19,1,Street Record,South Kensington Station Arcade,LONDON,15,15,20,,
Cornucopia,653969,Retailers - other,2014-03-14,5,51 Chelsea Manor Street,LONDON,SW3 5RZ,0,5,5,-0.16662700000000,51.48627800000000
Coronation Hotel,334317,Hotel/bed & breakfast/guest house,2015-07-10,3,59 Nevern Square,LONDON,SW5 9PN,10,5,10,-0.19680200000000,51.49286100000000
Coronet Cinema and Print Room at the Coronet,718348,Retailers - other,2014-11-13,Exempt,103-111 Notting Hill Gate,LONDON,W11 3LB,,,,-0.19892200000000,51.50849500000000
Costa Coffee,537066,Restaurant/Cafe/Canteen,2015-03-06,5,197 Brompton Road,LONDON,SW3 1LA,0,5,0,-0.16682500000000,51.49750400000000
Costa Coffee,334032,Restaurant/Cafe/Canteen,2011-08-12,5,198-200 Earl's Court Road,LONDON,SW5 9QF,0,5,0,-0.19421800000000,51.49262300000000
Costa Coffee,877752,Restaurant/Cafe/Canteen,2016-05-16,5,270-272 Old Brompton Road,LONDON,SW5 9HR,5,5,0,-0.19225700000000,51.48902300000000
Costa Coffee,333891,Restaurant/Cafe/Canteen,2015-04-10,5,376-386 Kensington High Street,LONDON,W14 8NP,5,5,0,,
Costa Coffee,334128,Restaurant/Cafe/Canteen,2015-01-19,5,6 Lancer Square,LONDON,W8 4EP,0,0,0,-0.19094100000000,51.50263500000000
Costcutter,586641,Retailers - other,2015-11-12,1,17 Golborne Road,LONDON,W10 5NY,15,10,20,-0.20614000000000,51.52359600000000
Cote,333849,Restaurant/Cafe/Canteen,2016-07-11,5,47 Kensington Court,LONDON,W8 5DA,0,5,0,-0.18851200000000,51.50210300000000
Cote Brasserie,516843,Restaurant/Cafe/Canteen,2016-04-12,5,7-12 Sloane Square,LONDON,,5,5,0,-0.15708000000000,51.49300800000000
Cottage (Goyo) Restaurant,333908,Restaurant/Cafe/Canteen,2016-08-08,2,Basement Floor,171 Ladbroke Grove,"LONDON, W10 6HJ",10,15,10,-0.21030900000000,51.51726600000000
Cottons,848134,Restaurant/Cafe/Canteen,2016-04-27,5,157-159 Notting Hill Gate,LONDON,W11 3LF,5,5,5,-0.20007800000000,51.50842300000000
Court Hotel,333793,Restaurant/Cafe/Canteen,2010-10-11,3,194-196 Earl's Court Road,LONDON,SW5 9QF,5,10,10,-0.19421800000000,51.49262300000000
Courtfield Public House,334733,Pub/bar/nightclub,2015-09-21,5,Public House,187 Earl's Court Road,"LONDON, SW5 9AN",5,5,5,-0.19224100000000,51.49198100000000
CousCous Darna,802153,Restaurant/Cafe/Canteen,2016-02-01,5,306 Earl's Court Road,LONDON,SW5 9BA,5,5,5,-0.19122800000000,51.49029300000000
Cowshed,333627,Restaurant/Cafe/Canteen,2015-02-06,5,119 Portland Road,LONDON,W11 4LN,5,5,0,-0.20993000000000,51.50928400000000
Cpress,576890,Restaurant/Cafe/Canteen,2015-07-13,4,Ground Floor,285 Fulham Road,"LONDON,",0,0,10,-0.17837900000000,51.48741500000000
Cranley Hotel,334916,Hotel/bed & breakfast/guest house,2016-07-18,3,10-12 Bina Gardens,LONDON,SW5 0LA,5,10,10,-0.18329400000000,51.49166300000000
Creative Indulgence,334100,Retailers - other,2011-10-07,5,48 Queen's Gate Terrace,LONDON,SW7 5PJ,0,0,5,-0.18310800000000,51.49887200000000
Crib de Rib,879053,Restaurant/Cafe/Canteen,,AwaitingInspection,1-3 Gloucester Road,LONDON,SW7 4PP,,,,-0.18345100000000,51.49895000000000
Crispins,334307,Retailers - other,2016-06-16,1,Ground Floor,11 Kensington Church Street,"LONDON, W8 4LF",10,15,20,-0.19184900000000,51.50298200000000
Crispins Food & Wine,334622,Retailers - other,2014-08-04,3,49-51 Notting Hill Gate,LONDON,W11 3JS,10,5,10,-0.19654600000000,51.50883600000000
Cromwell Crown Hotel,334751,Hotel/bed & breakfast/guest house,2015-12-23,4,139-141 Cromwell Road,LONDON,SW7 4DW,5,5,10,-0.18807200000000,51.49431800000000
Cromwell Hospital,334416,Hospitals/Childcare/Caring Premises,2015-10-23,5,164-178 Cromwell Road,LONDON,SW5 0TU,5,5,0,-0.19147600000000,51.49494600000000
Cromwell News,334513,Retailers - other,2016-02-16,Exempt,Basement And Ground Floor,136 Cromwell Road,"LONDON, SW7 4HA",,,,-0.18724100000000,51.49493500000000
Cross Keys,732259,Pub/bar/nightclub,2015-07-21,5,Public House,2 Lawrence Street,"LONDON, SW3 5NB",5,0,5,-0.17096200000000,51.48375600000000
Crowne Plaza,334208,Hotel/bed & breakfast/guest house,2015-04-21,5,94-106 Cromwell Road,LONDON,SW7 4ER,0,5,0,-0.18345100000000,51.49532600000000
Cru Kafe Limited,763296,Distributors/Transporters,2015-07-14,5,Unit 24,Baseline Business Studios,"Whitchurch Road, LONDON, W11 4AT",0,0,0,-0.21563700000000,51.51258200000000
Crussh,333431,Restaurant/Cafe/Canteen,2015-06-23,4,Westway Sports Centre,1 Crowthorne Road,"LONDON, W10 6RP",5,10,5,-0.22002800000000,51.51639800000000
Crussh  Juice Bar,335012,Restaurant/Cafe/Canteen,2014-10-14,5,27 Kensington High Street,LONDON,W8 5NP,0,5,5,-0.18829800000000,51.50205500000000
CRUSSH Juice Bar,333846,Restaurant/Cafe/Canteen,2016-07-12,4,59 Notting Hill Gate,LONDON,W11 3JS,5,10,5,-0.19654600000000,51.50883600000000
Curzon House Hotel,334650,Hotel/bed & breakfast/guest house,2015-09-17,4,58 Courtfield Gardens,LONDON,SW5 0NF,5,0,10,-0.18673300000000,51.49393800000000
Cut Price Liqourmart,334471,Retailers - other,2008-02-29,5,337 Ladbroke Grove,LONDON,W10 6HA,0,0,5,-0.21375000000000,51.52325400000000
D J News,334517,Retailers - other,2016-09-01,Exempt,Unit 1 Paul House,308 Ladbroke Grove,"LONDON, W10 5NH",,,,-0.21324000000000,51.52375900000000
D McKay (Fruiterers) Ltd,334539,Retailers - other,2014-02-04,4,19A Harrington Road,LONDON,SW7 3ES,5,10,5,-0.17516400000000,51.49396500000000
D.R.Evans Pharmacy,334976,Retailers - other,2014-03-03,5,Ground Floor,15 Elgin Crescent,London W11 2JA,5,0,0,-0.20495300000000,51.51490900000000
Dalgarno Community Centre,335036,Other catering premises,2011-09-28,5,Dalgarno Neighbourhood Trust,Dalgarno Way,"LONDON, W10 5EL",5,5,0,-0.22326600000000,51.52431600000000
Dalgarno Youth Project,609417,Other catering premises,2015-09-14,3,Dalgarno Neighbourhood Trust,Dalgarno Way,LONDON,10,10,10,,
Daphnes Restaurant Ltd,334546,Restaurant/Cafe/Canteen,2016-08-17,5,110-112 Draycott Avenue,LONDON,SW3 3AE,0,5,0,-0.16787000000000,51.49371600000000
Daquise Restaurant,334453,Restaurant/Cafe/Canteen,2016-01-20,5,20 Thurloe Street,LONDON,SW7 2LT,5,5,5,-0.17371000000000,51.49430200000000
Davca Food Centre,333941,Retailers - other,2011-07-25,4,117-119 Clarendon Road,LONDON,W11 4JG,5,0,10,-0.21107300000000,51.51211600000000
Daylesford Organic,333818,Retailers - other,2016-08-09,5,208-212 Westbourne Grove,LONDON,W11 2RH,5,5,0,-0.20047100000000,51.51454400000000
De Amicis,334761,Restaurant/Cafe/Canteen,2015-04-20,5,14 Notting Hill Gate,LONDON,W11 3JE,5,5,5,-0.19368400000000,51.50977300000000
De Silva's London,859469,Other catering premises,2016-03-17,5,,,,5,5,5,,
Debbie's Kitchen,814999,Other catering premises,2015-08-26,5,,,,0,0,5,,
Deena B,333821,Takeaway/sandwich shop,2015-04-29,4,308 Old Brompton Road,LONDON,SW5 9JF,5,0,10,-0.19348800000000,51.48850200000000
Demarquette,333665,Manufacturers/packers,2015-03-11,5,Unit 8,10 Acklam Road,"LONDON, W10 5QZ",0,5,5,-0.20578200000000,51.51986800000000
Denbigh Under 5's Group,334915,Hospitals/Childcare/Caring Premises,2015-11-18,5,Hall,5B Denbigh Road,"LONDON, W11 2SJ",0,5,0,-0.20096200000000,51.51378700000000
Designers Guild,653933,Restaurant/Cafe/Canteen,2015-03-09,5,267-271 King's Road,LONDON,SW3 5EN,5,5,5,-0.17265200000000,51.48579700000000
Designers Guild,334004,Restaurant/Cafe/Canteen,2015-05-20,5,3 Latimer Place,LONDON,W10 6QT,5,0,5,-0.22372300000000,51.51811800000000
Detox Kitchen,716755,Restaurant/Cafe/Canteen,2014-12-03,3,109-125 Knightsbridge,LONDON,,10,10,10,-0.15981700000000,51.50159400000000
Devonshire Arms,334439,Pub/bar/nightclub,2015-09-23,5,Public House The,37 Marloes Road,"LONDON, W8 6LA",5,5,5,-0.19270200000000,51.49707800000000
Dhawan News,334813,Retailers - other,2015-02-25,4,Ground Floor,155 Old Brompton Road,"LONDON, SW5 0LJ",0,5,10,-0.18359300000000,51.49065200000000
Diana Restaurant,590032,Restaurant/Cafe/Canteen,2016-06-09,2,Basement and Ground Floor,6 Wellington Terrace,"Notting Hill Gate, LONDON, W2 4LW",10,15,10,-0.19255200000000,51.50998000000000
Dillons Chemists,334705,Retailers - other,2009-01-29,4,24 Golborne Road,LONDON,W10 5PF,5,10,5,-0.20698600000000,51.52369900000000
Dina Centre,333991,Retailers - other,2015-04-15,3,127 Earl's Court Road,LONDON,SW5 9RH,10,10,10,-0.19437200000000,51.49347100000000
Dirty Bones,619101,Pub/bar/nightclub,2016-05-24,4,20 Kensington Church Street,LONDON,W8 4EP,5,10,5,-0.19094100000000,51.50263500000000
DKLW Lowe and EA,507885,Restaurant/Cafe/Canteen,2015-03-02,4,,,,5,10,5,,
Dolce Maria LLP,896231,Other catering premises,2016-06-02,5,,,,5,5,5,,
DoubleTree by Hilton,843822,Hotel/bed & breakfast/guest house,2016-01-20,5,100-106 Queen's Gate,LONDON,SW7 5AG,0,5,5,-0.17900800000000,51.49256800000000
Down to Earth,334298,Restaurant/Cafe/Canteen,2015-06-04,3,240-242 Kensington High Street,LONDON,W8 6NE,10,10,10,-0.20055900000000,51.49879100000000
Dr Care Pharmacy,729391,Retailers - other,2015-01-12,Exempt,Shop,73 Golborne Road,"LONDON, W10 5NP",,,,-0.20798900000000,51.52203300000000
Dragon Palace,334540,Restaurant/Cafe/Canteen,2016-01-14,4,207 Earl's Court Road,LONDON,SW5 9AN,10,5,5,-0.19224100000000,51.49198100000000
Draycott Hotel,334479,Hotel/bed & breakfast/guest house,2016-07-15,4,22-26 Cadogan Gardens,LONDON,SW3 2RP,0,10,10,-0.15994400000000,51.49306200000000
Drayton Arms,334884,Pub/bar/nightclub,2015-03-27,5,153 Old Brompton Road,LONDON,SW5 0LJ,0,5,0,-0.18359300000000,51.49065200000000
Duff Miller College Catering,746267,Restaurant/Cafe/Canteen,2015-03-25,5,59 Queen's Gate,LONDON,SW7 5JP,0,5,0,-0.17965500000000,51.49586000000000
Duke of Clarence,333507,Pub/bar/nightclub,2015-08-12,5,148 Old Brompton Road,LONDON,SW5 0BE,5,5,5,-0.18268700000000,51.49097900000000
E & O,333446,Restaurant/Cafe/Canteen,2015-01-21,5,Basement And Ground Floor,14 Blenheim Crescent,"LONDON, W11 1NN",5,5,5,-0.20560500000000,51.51592700000000
Earl of Lonsdale,334359,Restaurant/Cafe/Canteen,2015-09-09,5,281 Westbourne Grove,LONDON,W11 2QA,5,5,5,-0.20341700000000,51.51329400000000
Earl's Court Chemist,653962,Retailers - other,2014-05-06,5,240 Earl's Court Road,LONDON,SW5 9AA,0,5,0,-0.19315000000000,51.49195000000000
Earl's Court Nursery and Family Centre,334638,Hospitals/Childcare/Caring Premises,2015-11-13,5,65 Philbeach Gardens,LONDON,SW5 9EE,5,5,5,-0.20016400000000,51.49198600000000
Eastern Star,333741,Restaurant/Cafe/Canteen,2016-01-04,4,Ground Floor,14 Hogarth Place,"LONDON, SW5 0QT",5,5,10,-0.19298200000000,51.49291000000000
Eat,439609,Restaurant/Cafe/Canteen,2016-01-11,5,63 Notting Hill Gate,LONDON,W11 3JS,5,0,0,-0.19654600000000,51.50883600000000
Eat Ltd,333639,Restaurant/Cafe/Canteen,2016-07-11,5,Basement And Ground Floor,82 King's Road,"LONDON, SW3 4TZ",5,5,0,-0.16168900000000,51.49087700000000
Eat Neon,510442,Other catering premises,2015-07-30,5,,,,5,0,5,,
Eat Tokyo,455560,Restaurant/Cafe/Canteen,2015-11-16,4,18 Hillgate Street,LONDON,W8 7SR,0,10,10,-0.19772800000000,51.50808100000000
Eats N'Bits,455548,Takeaway/sandwich shop,2016-03-04,3,Shop,Earls Court Station,"Warwick Road, LONDON, SW5 9SY",10,10,10,-0.19355600000000,51.49188500000000
Eclipse,334855,Pub/bar/nightclub,2016-06-06,5,113 Walton Street,LONDON,SW3 2HP,5,5,5,-0.16759600000000,51.49409000000000
Eclipse,334535,Restaurant/Cafe/Canteen,2016-05-24,3,158 Old Brompton Road,LONDON,SW5 0BA,10,10,10,-0.18358000000000,51.49099300000000
Eden Foodservice (Interserve),859468,School/college/university,2016-03-03,5,,,,5,5,0,,
Eden Montessori Nursery,334037,Hospitals/Childcare/Caring Premises,2016-02-12,5,Kensington United Reformed Church,Allen Street,"LONDON, W8 6BL",5,5,5,-0.19485200000000,51.49881100000000
Eden Plaza Kensington,723827,Restaurant/Cafe/Canteen,2014-03-06,5,68-69 Queen's Gate,LONDON,SW7 5JT,5,5,5,-0.17934800000000,51.49489300000000
Edera,499785,Restaurant/Cafe/Canteen,2016-04-12,5,148 Holland Park Avenue,LONDON,W11 4UE,5,5,0,-0.20894300000000,51.50652700000000
Edu Tapas,853765,Other catering premises,2016-04-07,5,,,,5,5,5,,
Egerton House Hotel,334824,Hotel/bed & breakfast/guest house,2016-07-11,5,17-19 Egerton Terrace,LONDON,SW3 2BX,5,5,0,-0.16778200000000,51.49697900000000
Egg Break,766569,Restaurant/Cafe/Canteen,2015-10-08,2,30 Uxbridge Street,LONDON,W8 7TA,15,10,10,-0.19802200000000,51.50832000000000
Eight over Eight,334052,Restaurant/Cafe/Canteen,2015-12-10,4,392 King's Road,LONDON,SW3 5UZ,5,10,5,-0.17673400000000,51.48420600000000
El Gaucho,333546,Restaurant/Cafe/Canteen,2016-03-03,4,Basement,30 Old Brompton Road,"LONDON, SW7 3DL",5,10,5,-0.17530000000000,51.49380500000000
Electric Diner,333455,Restaurant/Cafe/Canteen,2015-12-15,4,191B Portobello Road,LONDON,W11 2ED,5,10,5,-0.20510100000000,51.51554100000000
Elephant & Castle PH,334418,Pub/bar/nightclub,2016-09-01,5,Public House,40-42 Holland Street,"LONDON, W8 4LT",5,5,0,-0.19280500000000,51.50322200000000
Elior,590023,Restaurant/Cafe/Canteen,2015-07-21,5,Town Hall,Hornton Street,"LONDON, W8 7NX",5,5,0,-0.19468400000000,51.50197400000000
Elior UK,699606,School/college/university,2016-09-06,5,Chelsea Academy,Lots Road,"LONDON,",5,5,5,-0.18301700000000,51.47798200000000
Elite Wine and Merchants,333756,Retailers - other,2014-03-25,Exempt,176 Earl's Court Road,LONDON,SW5 9QQ,,,,-0.19515700000000,51.49365400000000
Elixir Juicery Limited,668432,Restaurant/Cafe/Canteen,2014-08-05,4,333 Portobello Road,LONDON,W10 5SA,0,0,10,-0.21053800000000,51.52134300000000
Ellesmere House Care Home,333763,Hospitals/Childcare/Caring Premises,2016-05-19,5,Ellesmere House,9 Nightingale Place,"LONDON,",0,5,0,-0.18024400000000,51.48432300000000
Elystan Street,910724,Restaurant/Cafe/Canteen,,AwaitingInspection,Basement And Ground Floor,43,"LONDON, SW3 3NT",,,,-0.16724800000000,51.49125200000000
Embargo,334828,Restaurant/Cafe/Canteen,2015-02-16,5,533B King's Road,LONDON,SW10 0SZ,5,5,5,-0.18527500000000,51.48022900000000
Embassy Cafe,334947,Restaurant/Cafe/Canteen,2015-06-09,4,1-2 Mortimer Square,LONDON,W11 4BY,5,10,5,-0.21669200000000,51.51030500000000
Embassy News,334574,Retailers - other,2016-04-06,5,16 Notting Hill Gate,LONDON,W11 3JE,5,5,5,-0.19368400000000,51.50977300000000
Ena's Hands at the Dalgarno Trust,875327,School/college/university,2016-06-09,5,Dalgarno Neighbourhood Trust,Webb Close,"LONDON, W10 5QB",5,5,5,-0.22504700000000,51.52448600000000
Enterprise,334590,Restaurant/Cafe/Canteen,2016-03-07,5,35 Walton Street,LONDON,SW3 2HU,,,,-0.16581800000000,51.49531200000000
Essenza,333739,Restaurant/Cafe/Canteen,2016-03-21,5,210 Kensington Park Road,LONDON,W11 1NR,0,5,5,-0.20608300000000,51.51624900000000
Euphorium Bakery,489732,Restaurant/Cafe/Canteen,2016-04-05,5,100A West Cromwell Road,LONDON,W14 8PB,0,5,5,-0.20160600000000,51.49305100000000
Eurest Services,333959,Restaurant/Cafe/Canteen,2015-07-13,5,Northcliffe House,2 Derry Street,"LONDON, W8 5EE",0,0,0,-0.19062700000000,51.50146100000000
Evans and Peel Detective Agency,455546,Restaurant/Cafe/Canteen,2015-08-04,3,Basement,310 Earl's Court Road,"LONDON, SW5 9BA",10,10,10,-0.19122800000000,51.49029300000000
Exhibition Court Hotel IV,334343,Hotel/bed & breakfast/guest house,2016-02-26,4,25 Collingham Place,LONDON,SW5 0QF,0,5,10,-0.18996000000000,51.49392400000000
Exo-Tikka of India,334597,Restaurant/Cafe/Canteen,2014-09-17,4,Ground Floor,35 Stadium Street,"LONDON,",0,10,0,-0.17957700000000,51.47974500000000
Exquisite Range Limited,759144,Distributors/Transporters,2015-02-04,4,Flat B,23 Holland Road,"LONDON, W14 8HJ",5,5,10,-0.20727000000000,51.49739200000000
F J M Calder,334691,Retailers - other,2014-03-03,5,55-57 Notting Hill Gate,LONDON,W11 3JS,0,0,0,-0.19654600000000,51.50883600000000
Fabrique,842221,Restaurant/Cafe/Canteen,2016-02-19,5,212 Portobello Road,LONDON,W11 1LA,5,5,0,-0.20522300000000,51.51646900000000
Fait Maison,333485,Restaurant/Cafe/Canteen,2016-02-22,5,3 Stratford Road,LONDON,W8 6RQ,,,,-0.19285600000000,51.49682000000000
Fait Maison,334286,Restaurant/Cafe/Canteen,2016-01-07,3,50 Gloucester Road,LONDON,SW7 4QT,10,5,10,-0.18406300000000,51.49805100000000
Fait Maison Limited,774021,Restaurant/Cafe/Canteen,2015-08-19,4,144 Gloucester Road,LONDON,SW7 4SZ,5,5,10,-0.18246500000000,51.49366500000000
Falafel King,334918,Takeaway/sandwich shop,2015-03-24,4,274 Portobello Road,LONDON,W10 5TE,0,10,5,-0.20740300000000,51.51931700000000
Falafel Zaki Zaki,334149,Retailers - other,2016-01-15,4,Street Record,Portobello Road,LONDON,5,10,5,,
Falkner House Girls School,334771,School/college/university,2016-09-12,5,School,17-19 Brechin Place,"LONDON, SW7 4QB",5,5,0,-0.18095800000000,51.49135700000000
Farm Girl Cafe,782447,Restaurant/Cafe/Canteen,2015-09-03,5,St Peters Church Hall,59A Portobello Road,"LONDON, W11 3DB",5,5,5,-0.20089000000000,51.51196100000000
Feng Sushi,334986,Restaurant/Cafe/Canteen,2015-10-05,5,101 Notting Hill Gate,LONDON,W11 3JZ,0,5,5,-0.19748700000000,51.50872500000000
Feng Sushi,333416,Restaurant/Cafe/Canteen,2015-09-28,5,218 Fulham Road,LONDON,,5,5,5,-0.18225900000000,51.48545200000000
Fernandez & Wells,409875,Restaurant/Cafe/Canteen,2016-05-05,3,8 Exhibition Road,LONDON,SW7 2HF,5,10,10,-0.17319400000000,51.49495900000000
Fez Mangal,535394,Restaurant/Cafe/Canteen,2015-08-25,5,Ground Floor,104 Ladbroke Grove,"LONDON, W11 1PY",,,,-0.20904200000000,51.51648300000000
Ffiona,334353,Restaurant/Cafe/Canteen,2016-05-12,4,51 Kensington Church Street,LONDON,W8 4BA,5,5,10,-0.19345900000000,51.50417600000000
Field Stores,334580,Retailers - other,2016-04-08,2,138 Chesterton Road,LONDON,W10 6EP,10,15,10,-0.21534100000000,51.51942900000000
Filipino Restaurant,334829,Restaurant/Cafe/Canteen,2015-10-20,3,Basement and Ground Floor,10 Kenway Road,"LONDON, SW5 0RR",10,10,5,-0.19316500000000,51.49303000000000
Finborough Arms,771159,Pub/bar/nightclub,2015-09-15,5,Public House,118 Finborough Road,"LONDON,",5,0,5,-0.18953200000000,51.48617500000000
Fine Food Supermarket,535397,Retailers - other,2015-05-29,3,286 Old Brompton Road,LONDON,SW5 9HR,10,10,5,-0.19225700000000,51.48902300000000
Finlays,334680,Retailers - other,2013-02-20,Exempt,South Kensington Underground Station,Pelham Street,"LONDON, SW7 2NB",,,,-0.17393500000000,51.49408100000000
Finns,334538,Retailers - other,2015-09-17,5,4 Elystan Street,LONDON,SW3 3NS,5,5,5,-0.16611200000000,51.49084700000000
Firezza,333659,Restaurant/Cafe/Canteen,2015-11-25,4,114-116 Finborough Road,LONDON,,5,10,5,-0.18953300000000,51.48617600000000
Firezza,333643,Restaurant/Cafe/Canteen,2016-01-08,5,Ground Floor,12 All Saints Road,"LONDON, W11 1HH",0,5,5,-0.20355200000000,51.51791800000000
Fish House,463323,Takeaway/sandwich shop,2016-03-07,5,29 Pembridge Road,LONDON,W11 3HG,5,5,0,-0.19760800000000,51.51040800000000
Fitchews,905457,Other catering premises,,AwaitingInspection,,,,,,,,
Fitou's Thai And Malaysian Restaurant,333961,Restaurant/Cafe/Canteen,2015-10-20,5,1-3 Dalgarno Gardens,LONDON,W10 5LL,5,5,5,-0.22666800000000,51.52209200000000
Five Fields Restaurant,552040,Restaurant/Cafe/Canteen,2015-04-21,5,Basement to Second Floors,8-9 Blacklands Terrace,"LONDON, SW3 2SP",0,5,5,-0.16097600000000,51.49139600000000
Flat Iron,892480,Restaurant/Cafe/Canteen,,AwaitingInspection,46 Golborne Road,LONDON,W10 5PR,,,,-0.20770500000000,51.52264900000000
Flat Three Restaurant,695901,Restaurant/Cafe/Canteen,2016-07-15,5,120-122 Holland Park Avenue,LONDON,W11 4UA,5,0,0,-0.20763400000000,51.50683000000000
Flora Indica,837773,Restaurant/Cafe/Canteen,2016-08-04,5,242 Old Brompton Road,LONDON,SW5 0DE,5,5,0,-0.18981900000000,51.48985800000000
Food Corner,334435,Retailers - other,2016-05-17,5,Shop,45 Earl's Court Road,"LONDON, W8 6ED",5,5,5,-0.19745000000000,51.49760100000000
Foodland,334801,Retailers - other,2016-08-04,1,Ground Floor,114-116 Finborough Road,"LONDON,",10,15,20,-0.18953300000000,51.48617600000000
Fortevita Limited,814996,Restaurant/Cafe/Canteen,2015-07-01,5,38-42 Harrington Road,LONDON,SW7 3ND,0,0,5,-0.17786700000000,51.49409700000000
Fortune Star Chinese Takeaway,334904,Takeaway/sandwich shop,2015-09-04,3,Ground Floor,75 Barlby Road,"LONDON, W10 6AW",10,10,10,-0.22229200000000,51.52230400000000
Fouberts,333688,Restaurant/Cafe/Canteen,2015-12-09,3,17 Kensington High Street,LONDON,W8 5NP,10,10,10,-0.18829800000000,51.50205500000000
Four Winters,875322,Restaurant/Cafe/Canteen,2016-04-07,5,103 Gloucester Road,LONDON,SW7 4SS,0,0,0,-0.18212500000000,51.49424400000000
Fox & Pheasant PH,334876,Pub/bar/nightclub,2016-06-15,4,Public House,1 Billing Road,"LONDON,",5,10,5,-0.18803900000000,51.48208800000000
Fox Primary School,333764,School/college/university,2015-10-14,4,Kensington Place,LONDON,W8 7PP,0,10,5,-0.19671300000000,51.50750800000000
Franco Manca,803753,Restaurant/Cafe/Canteen,2015-10-19,5,151 Earl's Court Road,LONDON,SW5 9RQ,5,0,0,,
Franco Manca,699612,Restaurant/Cafe/Canteen,2014-12-16,5,91 Old Brompton Road,LONDON,SW7 3LD,0,0,0,-0.17701000000000,51.49246500000000
Frantoio,334568,Restaurant/Cafe/Canteen,2016-02-02,4,397 King's Road,LONDON,,10,5,5,-0.17799200000000,51.48267000000000
French Foodies Limited,653965,Restaurant/Cafe/Canteen,2014-06-11,5,23 Elystan Street,LONDON,SW3 3NT,0,5,0,-0.16724800000000,51.49125200000000
French Relais,869770,Restaurant/Cafe/Canteen,2016-05-12,3,442 King's Road,LONDON,,10,10,5,-0.17837000000000,51.48292800000000
Fresh Bake,699609,Takeaway/sandwich shop,2016-06-20,4,South Kensington Underground Station,Pelham Street,"LONDON, SW7 2ND",10,5,5,-0.17438000000000,51.49410600000000
Friends of Bousfield,846663,School/college/university,2016-02-29,4,Bousfield Primary School,South Bolton Gardens,"LONDON, SW5 0DJ",5,10,0,-0.18613100000000,51.49023200000000
Friends of the Royal Marsden,334763,Takeaway/sandwich shop,2015-05-15,5,Royal Marsden Hospital,203 Fulham Road,"LONDON, SW3 6JJ",0,5,5,-0.17282400000000,51.49088000000000
Fruit Fellaz,815018,Retailers - other,2015-10-23,5,Portobello Green,281 Portobello Road,"LONDON, W10 5TZ",0,0,5,-0.20749400000000,51.51883300000000
Fulham News,455531,Retailers - other,2015-08-10,Exempt,192 Fulham Road,LONDON,,,,,-0.18106300000000,51.48619800000000
Fulham Tarts,815020,Takeaway/sandwich shop,2015-10-28,4,1-1A Kynance Place,LONDON,SW7 4QS,10,0,10,-0.18452600000000,51.49763500000000
Full of Life,746269,Other catering premises,2015-03-20,5,Club,Kensal House,"Ladbroke Grove, LONDON, W10 5BQ",5,0,5,-0.21520300000000,51.52518200000000
Gail's,333712,Restaurant/Cafe/Canteen,2015-03-25,4,138 Portobello Road,LONDON,W11 2DZ,5,10,5,-0.20419800000000,51.51469100000000
Gail's Bakery,489735,Restaurant/Cafe/Canteen,2016-08-04,2,209 King's Road,LONDON,SW3 5ED,10,15,5,-0.16949800000000,51.48688000000000
Gail's Bakery,334293,Restaurant/Cafe/Canteen,2015-09-09,3,45 Thurloe Street,LONDON,SW7 2LQ,10,10,10,-0.17402800000000,51.49463100000000
Gails Ltd,480464,Restaurant/Cafe/Canteen,2016-05-12,2,Ground Floor,341 Fulham Road,"LONDON, SW10 9TW",10,15,10,,
Gainsborough Hotel,333578,Hotel/bed & breakfast/guest house,2015-03-16,5,Hotel,7-11 Queensberry Place,"LONDON, SW7 2DW",5,5,5,-0.17721700000000,51.49485100000000
Galicia Restaurant,334393,Restaurant/Cafe/Canteen,2015-07-17,4,323 Portobello Road,LONDON,W10 5SY,5,5,10,-0.20952100000000,51.52080600000000
Gallery Cafe,333863,Restaurant/Cafe/Canteen,2015-11-16,5,100 Duke Of York Square,LONDON,SW3 4LY,5,5,5,-0.15940400000000,51.49145300000000
Gallery Cafe,333409,Restaurant/Cafe/Canteen,2015-09-26,4,73 Portobello Road,LONDON,W11 2QB,5,5,10,-0.20246900000000,51.51283900000000
Gallery Hotel,334600,Hotel/bed & breakfast/guest house,2015-03-16,5,8-10 Queensberry Place,LONDON,SW7 2EA,5,5,5,-0.17783800000000,51.49482500000000
Gaon,507886,Restaurant/Cafe/Canteen,2016-04-29,2,160 Old Brompton Road,LONDON,SW5 0BA,10,15,10,,
Garden Bar and Grill,333496,Pub/bar/nightclub,2016-03-08,4,41 Bramley Road,LONDON,W10 6SZ,5,5,10,-0.21802000000000,51.51245600000000
Garden Basket,668437,Retailers - other,2014-11-14,5,8 Stratford Road,LONDON,W8 6QD,0,5,5,-0.19299600000000,51.49657900000000
Garden House School,333585,School/college/university,2016-05-19,5,Turks Row,LONDON,SW3 4TW,0,0,0,-0.15788700000000,51.48978300000000
Garden View Hotel,653968,Hotel/bed & breakfast/guest house,2014-11-14,4,Hotel,29-31 Nevern Square,"LONDON, SW5 9PE",10,0,5,-0.19767900000000,51.49179500000000
Garfunkels,334781,Restaurant/Cafe/Canteen,2015-01-22,5,Unit 25 To 26 Gloucester Road Arcade,128 Gloucester Road,"LONDON, SW7 4SF",0,0,0,-0.18355500000000,51.49450900000000
Garnier,455542,Restaurant/Cafe/Canteen,2016-03-04,4,314 Earl's Court Road,LONDON,SW5 9BQ,5,10,5,-0.19084400000000,51.48980200000000
Gasrtovino,837786,Restaurant/Cafe/Canteen,2016-01-04,5,257 King's Road,LONDON,SW3 5EL,5,5,5,-0.17193700000000,51.48602800000000
Gate Cinema,334980,Retailers - other,2015-01-08,5,87 Notting Hill Gate,LONDON,W11 3JZ,5,5,5,-0.19748700000000,51.50872500000000
Gaucho & Galante (Bar),334474,Restaurant/Cafe/Canteen,2015-07-24,5,87-89 Sloane Avenue,LONDON,SW3 3EL,0,5,0,-0.16744900000000,51.49237000000000
Geales,418972,Restaurant/Cafe/Canteen,2015-07-16,3,1 Cale Street,LONDON,SW3 3QT,10,10,10,-0.16606800000000,51.49052300000000
Geales Fish Restaurant,334496,Restaurant/Cafe/Canteen,2015-04-29,4,2-4 Farmer Street,LONDON,W8 7SN,5,5,10,-0.19675100000000,51.50839000000000
Gelato Mio,333794,Restaurant/Cafe/Canteen,2014-12-16,4,138 Holland Park Avenue,LONDON,W11 4UE,10,5,0,-0.20894300000000,51.50652700000000
Gelato Mio,333888,Restaurant/Cafe/Canteen,2016-04-28,3,37-39 Pembridge Road,LONDON,W11 3HG,5,10,10,-0.19760800000000,51.51040800000000
Gelgela,334012,Restaurant/Cafe/Canteen,2016-04-26,4,111 Gloucester Road,LONDON,SW7 4ST,5,5,10,-0.18178800000000,51.49365400000000
Genji Inc,333713,Takeaway/sandwich shop,2014-11-04,4,Whole Foods,63-97 Kensington High Street,"LONDON, W8 5SE",5,10,0,-0.19062700000000,51.50146100000000
Genting Casino Cromwell Mint,334645,Restaurant/Cafe/Canteen,2015-07-08,5,43-45 Cromwell Road,LONDON,SW7 2EF,0,0,5,-0.17791300000000,51.49511400000000
George's Fisheries,556053,Retailers - other,2016-02-11,3,106 Ladbroke Grove,LONDON,W11 1PY,5,10,10,-0.20904200000000,51.51648300000000
Giovanni,716751,Restaurant/Cafe/Canteen,2014-12-15,5,6 Yeoman's Row,LONDON,SW3 2AH,5,5,5,-0.16660300000000,51.49691600000000
Giraffe,333943,Restaurant/Cafe/Canteen,2016-08-24,5,Ground Floor And Mezzanine,120 Holland Park Avenue,"LONDON, W11 4UA",5,5,0,-0.20763400000000,51.50683000000000
Giribizzi,738977,Retailers - other,2015-02-17,Exempt,,,,,,,,
Glendower Preparatory School,334769,School/college/university,2015-06-18,5,Glendower School,87 Queen's Gate,"LONDON, SW7 5JX",0,5,5,-0.17916500000000,51.49404500000000
Gloucester Arms,800802,Pub/bar/nightclub,2015-08-06,4,Public House,34 Gloucester Road,"LONDON, SW7 4RB",5,10,5,-0.18400400000000,51.49915600000000
Goat,653935,Pub/bar/nightclub,2016-02-10,3,333 Fulham Road,LONDON,,5,10,10,-0.17999200000000,51.48631600000000
Golborne Bistro,815019,Restaurant/Cafe/Canteen,2015-11-24,5,102 Golborne Road,LONDON,W10 5PS,5,0,5,-0.20889000000000,51.52184000000000
Golborne Cafe,334387,Restaurant/Cafe/Canteen,2016-06-16,3,78 Golborne Road,LONDON,W10 5PS,10,10,10,,
Golborne Deli,333457,Retailers - other,2015-08-19,4,100 Golborne Road,LONDON,W10 5PS,10,5,5,-0.20889000000000,51.52184000000000
Golborne Fisheries,333677,Retailers - other,2016-05-31,3,Shop,75-77 Golborne Road,"LONDON, W10 5NP",10,10,10,-0.20798900000000,51.52203300000000
Gold Care Homes Residential Care Home,579431,Hospitals/Childcare/Caring Premises,2016-06-20,5,,,,5,5,5,,
Good Earth,334827,Restaurant/Cafe/Canteen,2015-03-25,4,Basement To First Floors,233 Brompton Road,"LONDON, SW3 2EP",5,5,10,-0.16860200000000,51.49665900000000
Goode & Wright Diner,632241,Restaurant/Cafe/Canteen,2015-12-02,5,271 Portobello Road,LONDON,W11 1LR,5,0,5,-0.20679800000000,51.51786000000000
Gordon Ramsay,334395,Restaurant/Cafe/Canteen,2016-01-14,5,68-69 Royal Hospital Road,LONDON,SW3 4HP,0,5,0,-0.16197800000000,51.48548600000000
Gourmet Burger Kitchen,333699,Restaurant/Cafe/Canteen,2016-05-17,5,107 Old Brompton Road,LONDON,SW7 3LE,0,0,0,-0.17797800000000,51.49203000000000
Gourmet Burger Kitchen,333697,Restaurant/Cafe/Canteen,2016-07-14,5,160 Portobello Road,LONDON,W11 2EB,5,5,0,,
Gourmet Burger Kitchen,333681,Restaurant/Cafe/Canteen,2016-07-19,5,163-165 Earl's Court Road,LONDON,SW5 9RF,5,5,0,-0.19346900000000,51.49261200000000
Grain Shop,333566,Restaurant/Cafe/Canteen,2015-04-23,4,269A Portobello Road,LONDON,,5,10,5,-0.20675600000000,51.51782400000000
Gran Caffe Londra,333617,Restaurant/Cafe/Canteen,2016-02-15,5,32 Hans Crescent,LONDON,,5,5,5,-0.16196400000000,51.49979300000000
Granger & Co,333905,Restaurant/Cafe/Canteen,2016-09-12,5,175 Westbourne Grove,LONDON,W11 2SB,5,5,5,-0.19836800000000,51.51451200000000
Granier,848133,Restaurant/Cafe/Canteen,2016-03-02,5,204 Portobello Road,LONDON,W11 1LA,5,5,5,-0.20522300000000,51.51646900000000
Great India Tandoori,640123,Restaurant/Cafe/Canteen,2016-02-22,1,79 Lower Sloane Street,LONDON,,10,15,20,-0.15630300000000,51.49013600000000
Greek Affair,333537,Restaurant/Cafe/Canteen,2016-08-19,4,1 Hillgate Street,LONDON,W8 7SP,0,10,5,-0.19743200000000,51.50829300000000
Green Bean,695896,Mobile caterer,2014-07-31,4,,,,5,10,5,,
Greggs,334373,Manufacturers/packers,2015-10-02,5,238 Portobello Road,LONDON,W11 1LJ,0,5,0,-0.20584200000000,51.51723400000000
Greggs,334912,Manufacturers/packers,2015-03-26,5,Ground Floor,183 Earl's Court Road,"LONDON, SW5 9RD",0,0,0,-0.19296000000000,51.49238800000000
Grenfell Creche and Under 3's Centre,909419,Hospitals/Childcare/Caring Premises,2016-07-05,5,Grenfell Tower,Lancaster West Estate,LONDON,0,0,5,,
Greyhound Public House,334462,Pub/bar/nightclub,2014-12-02,5,Public House,1 Kensington Square,"LONDON, W8 5EP",5,5,0,-0.18924200000000,51.50078400000000
Grill Market,899256,Restaurant/Cafe/Canteen,,AwaitingInspection,212 Kensington Park Road,LONDON,W11 1NR,,,,-0.20608300000000,51.51624900000000
Grill Market Lomax,744676,Restaurant/Cafe/Canteen,2015-02-09,4,293 Fulham Road,LONDON,,0,10,10,-0.17843700000000,51.48737000000000
Grosvenor Casinos Ltd,334895,Restaurant/Cafe/Canteen,2015-03-10,5,Basement,4-18 Harrington Gardens,"LONDON, SW7 4LJ",0,5,0,-0.18332600000000,51.49339000000000
Grounds of Arabica,859483,Restaurant/Cafe/Canteen,,AwaitingInspection,Basement And Ground Floor,11 Bramley Road,"LONDON, W10 6SZ",,,,-0.21802000000000,51.51245600000000
Gusto,640124,Restaurant/Cafe/Canteen,2015-10-29,2,Ground Floor,159 Earl's Court Road,"LONDON, SW5 9RQ",15,10,10,-0.19382900000000,51.49298600000000
GWK CATERING LTD,896230,Other catering premises,2016-06-23,4,,,,0,10,10,,
Haandi Restaurants Limited,334444,Restaurant/Cafe/Canteen,2016-03-01,4,7 Cheval Place,LONDON,SW7 1EW,5,10,5,-0.16694300000000,51.49849500000000
Hache,333781,Restaurant/Cafe/Canteen,2015-07-22,5,329-331 Fulham Road,LONDON,,5,5,5,-0.17999200000000,51.48631600000000
Hamid's Moroccan Fish,334005,Retailers - other,2015-09-29,5,Street Record,Golborne Road,"LONDON, W10 5PW",5,5,5,-0.20687700000000,51.52393200000000
Happy Donuts,912061,Takeaway/sandwich shop,2016-09-06,5,254 Portobello Road,LONDON,W11 1LL,5,5,5,-0.20644900000000,51.51791800000000
Happy Vegetarian,333536,Retailers - other,2015-06-20,5,Street Only Blpu,Portobello Road,"LONDON, W11 3DL",5,5,5,-0.20002600000000,51.51194800000000
Hare and Tortoise,333540,Restaurant/Cafe/Canteen,2016-01-20,3,373 Kensington High Street,LONDON,W14 8QZ,10,5,10,-0.20498900000000,51.49676300000000
Hari's Hairdressers,335005,Restaurant/Cafe/Canteen,2015-05-15,5,305 Brompton Road,LONDON,SW3 2DY,5,5,5,-0.16855800000000,51.49415900000000
Harlesden Cut Price Liquor Store,333595,Retailers - other,2014-03-03,5,81 Golborne Road,LONDON,W10 5NL,5,5,5,-0.20875900000000,51.52151400000000
Harrington Club,333621,Other catering premises,2013-08-19,5,17A Harrington Road,LONDON,SW7 3ES,5,5,5,-0.17516400000000,51.49396500000000
Harrods Restaurants and Food Hall,333782,Retailers - other,2016-02-24,5,Harrods,87-135 Brompton Road,"LONDON,",5,5,0,-0.16305300000000,51.49960300000000
Harrow Club Cafe,526112,Restaurant/Cafe/Canteen,2014-09-15,5,Harrow Club,187 Freston Road,"LONDON, W10 6TH",5,5,5,-0.21983600000000,51.51283400000000
Harvey Nichols Fifth Floor Restaurant and Cafe,334702,Restaurant/Cafe/Canteen,2016-03-17,5,109-125 Knightsbridge,LONDON,,5,5,5,-0.15981700000000,51.50159400000000
Haveli Hotel,335018,Hotel/bed & breakfast/guest house,2016-04-06,4,81 Warwick Road,LONDON,SW5 9HB,0,5,10,-0.19764100000000,51.49093100000000
Hawksmoor,668405,Restaurant/Cafe/Canteen,2015-10-22,4,BASEMENT,3 Yeoman's Row,"LONDON, SW3 2AL",10,5,0,-0.16613900000000,51.49699000000000
Hazel House,334778,Hospitals/Childcare/Caring Premises,2008-06-17,5,67 Warwick Road,LONDON,SW5 9HB,5,5,5,-0.19764100000000,51.49093100000000
Health Craze,334553,Retailers - other,2014-02-04,5,24 Old Brompton Road,LONDON,SW7 3DL,0,5,0,-0.17530000000000,51.49380500000000
Heatherwick Kiosk,859464,Retailers - other,2016-01-13,5,outside Earl's Court Station,Earl's Court Road,"LONDON, SW5 9QA",0,5,5,,
Heathwick Importers,746261,Distributors/Transporters,2015-02-26,5,25A Holland Street,LONDON,W8 4NA,5,5,5,-0.19241100000000,51.50299100000000
Henley House Hotel,334549,Hotel/bed & breakfast/guest house,2016-03-21,5,30 Barkston Gardens,LONDON,SW5 0EN,0,5,0,-0.19121000000000,51.49255000000000
Henry Roots,803756,Restaurant/Cafe/Canteen,2015-10-29,5,Ground Floor,9 Park Walk,"LONDON,",5,5,5,-0.17984500000000,51.48602600000000
Herbal Inn,333701,Retailers - other,2015-08-18,5,260 Kensington High Street,LONDON,W8 6ND,0,0,0,-0.20055800000000,51.49879100000000
Here,333407,Retailers - other,2014-12-12,5,Chelsea Farmers Market,125-135 Sydney Street,"LONDON, SW3 6NR",0,5,0,-0.16977700000000,51.48854800000000
Hereford Arms (The),334738,Pub/bar/nightclub,2016-02-23,5,Public House,127 Gloucester Road,"LONDON, SW7 4TE",5,5,0,-0.18139300000000,51.49309900000000
Heythrop College - Kitchen,668431,School/college/university,2016-08-08,5,Heythrop College,23-24 Kensington Square,"LONDON, W8 5HH",5,5,5,-0.19083400000000,51.50024200000000
Highlever Road Care Home,334214,Hospitals/Childcare/Caring Premises,2013-07-01,5,108 Highlever Road,LONDON,W10 6PL,5,5,5,-0.22407400000000,51.52058700000000
Highlife,507884,Retailers - other,2016-06-06,4,292 Portobello Road,LONDON,W10 5TE,0,0,10,-0.20740300000000,51.51931700000000
Hill House  Prep School,334842,School/college/university,2015-10-07,5,16-17 Hans Place,LONDON,,0,0,5,-0.16027900000000,51.49728500000000
Hill House International School,335008,School/college/university,2016-05-24,4,15-17A Cadogan Gardens,LONDON,SW3 2RJ,0,5,10,-0.15918300000000,51.49371500000000
Hill House School,334475,School/college/university,2016-05-17,5,South Hall Of Remembrance,Flood Street,"LONDON, SW3 5SY",5,5,5,-0.16574700000000,51.48631800000000
Hilltop Hotel,333445,Hotel/bed & breakfast/guest house,2016-02-05,5,26 Pembridge Gardens,LONDON,W2 4DX,0,0,5,-0.19702800000000,51.51049800000000
Hilton London Olympia Hotel,334441,Restaurant/Cafe/Canteen,2015-11-26,5,376-386 Kensington High Street,LONDON,W14 8NP,5,5,0,,
Holiday Inn London Kensington Forum,837788,Restaurant/Cafe/Canteen,2016-01-04,5,97-109 Cromwell Road,LONDON,SW7 4DN,0,5,0,-0.18513700000000,51.49422800000000
Holland & Barrett,333944,Retailers - other,2015-01-15,5,130 Notting Hill Gate,LONDON,W11 3QG,0,0,0,-0.19983000000000,51.50886000000000
Holland & Barrett,640116,Retailers - other,2014-02-27,5,167 Kensington High Street,LONDON,W8 6SH,5,5,5,-0.19522500000000,51.49995000000000
Holland & Barrett,334714,Retailers - other,2013-03-25,5,220 Fulham Road,LONDON,,0,5,5,-0.18225900000000,51.48545200000000
Holland & Barrett,668450,Retailers - other,2015-02-18,5,73 King's Road,LONDON,SW3 4NX,0,5,0,-0.16425800000000,51.48896600000000
Holland & Barrett,746268,Retailers - other,2015-03-24,5,Ground Floor,162 Portobello Road,"LONDON, W11 2EB",0,0,0,-0.20461100000000,51.51555200000000
Holland & Barrett Ltd,335032,Retailers - other,2015-01-26,5,192 Earl's Court Road,LONDON,SW5 9QF,0,0,0,-0.19421800000000,51.49262300000000
Holland Court Hotel,334021,Hotel/bed & breakfast/guest house,2015-08-25,4,31-33 Holland Road,LONDON,W14 8HJ,10,5,0,-0.20727000000000,51.49739200000000
Holland Inn Hotel,333987,Hotel/bed & breakfast/guest house,2011-08-15,5,59 Holland Road,LONDON,W14 8HL,5,5,5,-0.20890900000000,51.49855900000000
Holland Park Cafeteria,333487,Restaurant/Cafe/Canteen,2016-02-04,4,Holland Park,LONDON,W8 6LU,10,5,5,-0.20362300000000,51.50147200000000
Holland Park Day Nursery,334740,Hospitals/Childcare/Caring Premises,2016-03-11,5,Holland Park Nursery School House,5 Holland Road,"LONDON, W14 8HJ",0,0,0,-0.20727000000000,51.49739200000000
Holland Park Lawn Tennis Club,859479,Restaurant/Cafe/Canteen,2016-05-09,5,1 Addison Road,LONDON,W14 8DU,0,5,5,-0.21074200000000,51.50473800000000
Holland Park Newsagents,334926,Retailers - other,2014-01-14,5,134 Holland Park Avenue,LONDON,W11 4UE,5,5,5,-0.20894300000000,51.50652700000000
Holland Park Pre School,333605,Hospitals/Childcare/Caring Premises,2015-07-16,5,Holland Park Nursery,Holland Park,"LONDON, W8 6LU",0,0,5,-0.20362300000000,51.50147200000000
Hollywood Arms PH,333501,Restaurant/Cafe/Canteen,2016-07-05,5,Public House,45 Hollywood Road,"LONDON,",5,5,0,-0.18432900000000,51.48628400000000
Holy Trinity Brompton,615432,Restaurant/Cafe/Canteen,2015-09-23,5,St Augustine's Vicarage,117 Queen's Gate,"LONDON, SW7 5LP",0,5,0,-0.17805300000000,51.49304800000000
Holy Trinity Church,333558,Restaurant/Cafe/Canteen,2015-06-02,4,Brompton Road,LONDON,SW7 2RW,10,5,5,-0.16969600000000,51.49668500000000
Holy Trinity Primary School,853753,School/college/university,2016-03-04,5,Holy Trinity Church Of England Primary School,Sedding Street,"LONDON,",5,5,5,-0.15666500000000,51.49329800000000
Holy Trinity Primary School,859475,School/college/university,2016-03-22,5,Holy Trinity School,Cadogan Gardens,"LONDON, SW3 2RN",0,5,0,-0.15891400000000,51.49324300000000
Holyroyd Howe,877751,School/college/university,2016-05-13,5,Mander Porter Woodward School,24 Elvaston Place,"LONDON, SW7 5NL",0,0,5,-0.18091100000000,51.49760600000000
Home Caterer,853766,Other catering premises,,AwaitingInspection,,,,,,,,
Home Caterer,734292,Hospitals/Childcare/Caring Premises,2015-01-16,Exempt,,,,,,,,
Home Made Tiramisu,892479,Other catering premises,2016-07-28,5,,,,5,5,5,,
Honest Burgers,623628,Restaurant/Cafe/Canteen,2016-01-26,5,189 Portobello Road,LONDON,W11 2ED,5,5,5,,
Honest Burgers,869769,Restaurant/Cafe/Canteen,2016-07-26,4,24 Thurloe Street,LONDON,SW7 2LT,10,5,5,-0.17371000000000,51.49430200000000
Honey Pie,526111,Other catering premises,2015-03-05,5,,,,0,0,0,,
Hoop and Toy,334507,Pub/bar/nightclub,2016-03-07,5,34 Thurloe Place,LONDON,SW7 2HQ,0,5,0,-0.17403700000000,51.49476600000000
Hornimans Adventure Playground,335026,Other catering premises,2016-03-09,4,Southern Row,LONDON,W10 5AN,10,0,10,-0.21138000000000,51.52488100000000
Hostelworld,699599,Hotel/bed & breakfast/guest house,2014-08-14,5,29 Dawson Place,LONDON,W2 4TH,5,5,0,-0.19641400000000,51.51218000000000
Hotel Blue Bells,333735,Hotel/bed & breakfast/guest house,2014-03-03,5,14 Pembridge Square,LONDON,W2 4EH,5,5,5,-0.19420800000000,51.51146200000000
Hotel Boka,334652,Hotel/bed & breakfast/guest house,2016-07-21,5,33-37 Eardley Crescent,LONDON,SW5 9JT,0,0,0,-0.19575100000000,51.48954400000000
Hotel Earls Court,334664,Restaurant/Cafe/Canteen,2016-07-07,5,Hotel,28 Warwick Road,"LONDON, SW5 9UD",5,5,5,-0.19462900000000,51.48988700000000
Hotel George,334641,Hotel/bed & breakfast/guest house,2016-05-06,5,1-15 Templeton Place,LONDON,SW5 9NB,0,5,0,-0.19529000000000,51.49210000000000
Hotel Moonlight,875326,Restaurant/Cafe/Canteen,2016-07-29,5,9 Knaresborough Place,LONDON,SW5 0TP,0,0,5,-0.19114000000000,51.49397000000000
Hotel Oliver,333903,Hotel/bed & breakfast/guest house,2015-07-10,4,198 Cromwell Road,LONDON,SW5 0SN,5,5,10,-0.19367700000000,51.49500700000000
Hotel Olympia,334607,Hotel/bed & breakfast/guest house,2014-11-10,3,49 Earl's Court Square,LONDON,SW5 9BY,10,10,10,-0.19367700000000,51.49028600000000
Hotel Sara,334654,Hotel/bed & breakfast/guest house,2014-02-27,5,15 Eardley Crescent,LONDON,SW5 9JS,5,5,5,-0.19581600000000,51.48826000000000
Hotel Xenia,590026,Hotel/bed & breakfast/guest house,2016-02-18,4,Hotel,160 Cromwell Road,"LONDON, SW5 0TL",10,5,5,-0.18997700000000,51.49495900000000
Humming Bird Bakery,333497,Manufacturers/packers,2015-02-20,5,Ground Floor,133 Portobello Road,"LONDON, W11 2DY",0,5,0,-0.20407400000000,51.51418600000000
I T Lloyd,668440,Retailers - other,2015-03-30,5,255 King's Road,LONDON,SW3 5EL,0,0,0,-0.17193700000000,51.48602800000000
I_Mmanuel,716718,Other catering premises,2014-10-03,5,,,,5,5,5,,
Ibis Styles London Kensington,716732,Hotel/bed & breakfast/guest house,2016-09-06,5,15-25 Hogarth Road,LONDON,SW5 0QJ,5,5,0,-0.19229600000000,51.49350200000000
Iddu Ltd,699601,Restaurant/Cafe/Canteen,2015-02-23,5,44 Harrington Road,LONDON,SW7 3ND,5,5,5,-0.17786700000000,51.49409700000000
Ikomex Ltd,746259,Other catering premises,2015-02-26,Exempt,,,,,,,,
Il Borgo,333505,Restaurant/Cafe/Canteen,2016-05-24,4,Basement And Ground Floor Rear,13 Gloucester Road,"LONDON, SW7 4PP",5,10,5,-0.18345100000000,51.49895000000000
Il Trillo Ristorante,455536,Restaurant/Cafe/Canteen,2016-02-17,5,4 Hollywood Road,LONDON,,5,5,5,-0.18461400000000,51.48599200000000
Illy's Cafe,899257,Restaurant/Cafe/Canteen,,AwaitingInspection,23 Old Brompton Road,LONDON,SW7 3HZ,,,,-0.17413500000000,51.49340000000000
In 2 Vino,759145,Retailers - other,2015-01-28,1,4 Westbourne Studios,242 Acklam Road,"LONDON, W10 5JJ",5,20,10,-0.20311000000000,51.52146400000000
Indian street Kitchen,716722,Other catering premises,2014-09-03,5,,,,5,0,5,,
Institute for Cancer Research,334363,Restaurant/Cafe/Canteen,2016-02-05,5,237 Fulham Road,LONDON,SW3 6JB,0,0,0,-0.17397100000000,51.49027700000000
Instituto Espanol Canada Blanch,334038,School/college/university,2015-12-15,5,317 Portobello Road,LONDON,W10 5SY,0,5,5,-0.20952100000000,51.52080600000000
Internet Cafe,334145,Restaurant/Cafe/Canteen,2016-03-10,3,124 Cromwell Road,LONDON,SW7 4ET,10,10,10,-0.18659100000000,51.49496000000000
Iris Studio,333837,Other catering premises,2014-06-20,5,4A Adrian Mews,LONDON,,5,0,5,-0.18918600000000,51.48510900000000
Islamic Universal Association,334034,Other catering premises,2014-06-19,5,20 Penzance Place,LONDON,W11 4PG,5,5,0,-0.21136400000000,51.50909000000000
ISS Mediclean,334712,Hospitals/Childcare/Caring Premises,2016-04-01,5,369 Fulham Road,LONDON,,5,5,0,-0.18147100000000,51.48427100000000
Itsu,334054,Restaurant/Cafe/Canteen,2015-09-28,5,100 Notting Hill Gate,LONDON,W11 3QA,0,5,0,-0.19784400000000,51.50916200000000
ITSU,334718,Restaurant/Cafe/Canteen,2016-03-17,5,118 Draycott Avenue,LONDON,SW3 3AE,0,0,0,-0.16787000000000,51.49371600000000
Itsu,798060,Restaurant/Cafe/Canteen,2015-08-18,5,47 King's Road,LONDON,SW3 4NB,0,0,0,-0.16181700000000,51.49018600000000
Jago Butchers,334706,Retailers - other,2011-05-20,5,9 Elystan Street,LONDON,SW3 3NT,0,0,5,-0.16724800000000,51.49125200000000
Jah Link Vegetarian Corner,333803,Other catering premises,2016-03-30,3,,,,5,10,10,,
Jai News,334476,Retailers - other,2016-08-05,4,254 Kensington High Street,LONDON,W8 6ND,5,5,10,-0.20055800000000,51.49879100000000
Jakobs,334984,Restaurant/Cafe/Canteen,2015-06-24,3,Basement and Ground Floor,20 Gloucester Road,"LONDON, SW7 4RB",10,5,10,-0.18400400000000,51.49915600000000
Jaks,333852,Restaurant/Cafe/Canteen,2015-07-22,3,77 Walton Street,LONDON,SW3 2HT,10,10,10,-0.16674600000000,51.49478700000000
Jaks Bar Limited,334041,Pub/bar/nightclub,2014-11-25,5,87-89 Walton Street,LONDON,SW3 2HP,5,5,5,-0.16759600000000,51.49409000000000
Jamon Jamon,334143,Retailers - other,2016-02-20,4,Street Record,Portobello Road,LONDON,5,10,5,,
Jamu Kitchen,842220,Retailers - other,2016-02-11,5,,,,5,5,5,,
Janet's Bar,334670,Pub/bar/nightclub,2015-07-07,4,30 Old Brompton Road,LONDON,SW7 3DL,10,5,5,-0.17530000000000,51.49380500000000
Jay Catering Caribbean Takeaway,334177,Restaurant/Cafe/Canteen,2015-08-18,3,28 Lancaster Road,LONDON,W11 1QP,10,10,5,-0.20312900000000,51.51841600000000
Jeff de Bruges,727851,Retailers - other,2015-09-17,5,30 Thurloe Street,LONDON,SW7 2LT,5,0,5,-0.17371000000000,51.49430200000000
Jeroboam,334613,Retailers - other,2014-11-25,Exempt,6 Pont Street,LONDON,,,,,-0.15682000000000,51.49767100000000
Jeroboams,333577,Retailers - other,2015-08-17,Exempt,Shop,56 Walton Street,"LONDON, SW3 1RB",,,,-0.16477000000000,51.49630300000000
Jeroboams @ Mr Christians,640108,Retailers - other,2014-03-03,Exempt,13 Elgin Crescent,LONDON,W11 2JA,,,,-0.20495300000000,51.51490900000000
Jeroboams Ltd,615434,Retailers - other,2015-08-27,5,96 Holland Park Avenue,LONDON,W11 3RB,0,0,5,-0.20639200000000,51.50727000000000
JIA,334170,Restaurant/Cafe/Canteen,2016-01-26,3,Basement And Ground Floor,1 Harrington Road,"LONDON, SW7 3ES",10,10,10,-0.17516400000000,51.49396500000000
JMS Foods,334545,Retailers - other,2016-06-06,3,264A Earl's Court Road,LONDON,SW5 9AD,10,10,10,-0.19282600000000,51.49175600000000
Joe and the Juice,846664,Restaurant/Cafe/Canteen,2016-03-02,3,65 King's Road,LONDON,SW3 4NT,5,10,10,-0.16362100000000,51.48940500000000
Joe's BBQ,842224,Retailers - other,2016-01-22,4,Street Record,Portobello Road,LONDON,5,10,5,,
Joe's Restaurant Bar,446318,Restaurant/Cafe/Canteen,2015-07-22,5,16 Sloane Street,LONDON,,0,5,0,-0.16047600000000,51.50026500000000
John Forrest Bakery,334658,Manufacturers/packers,2016-02-01,0,401 King's Road,LONDON,,15,20,20,-0.17799200000000,51.48267000000000
Johnnie's Fish Bar & Kebab House,334724,Takeaway/sandwich shop,2016-07-20,4,494 King's Road,LONDON,,5,10,5,-0.18070900000000,51.48206500000000
Josh Wood Atelier,583011,Other catering premises,2015-07-20,5,6 Lansdowne Mews,LONDON,W11 3BH,5,0,5,,
Joury Knightsbridge,333603,Restaurant/Cafe/Canteen,2016-03-16,5,146 Brompton Road,LONDON,SW3 1HX,0,5,0,-0.16652500000000,51.49850600000000
Juicebaby,699605,Restaurant/Cafe/Canteen,2014-09-19,4,398 King's Road,LONDON,,5,0,10,-0.17737200000000,51.48339800000000
JuJu,333811,Restaurant/Cafe/Canteen,2016-01-18,5,Restaurant,316-318 King's Road,"LONDON, SW3 5UH",0,5,5,-0.17395300000000,51.48570000000000
Jumeirah Carlton Tower Hotel - All Food Premises,334907,Restaurant/Cafe/Canteen,2016-04-12,5,Carlton Tower Hotel,Cadogan Place,"LONDON,",0,5,0,-0.15910300000000,51.49857900000000
Jusu Brothers,803757,Restaurant/Cafe/Canteen,2016-08-16,5,Restaurant,149-151 Westbourne Grove,"LONDON, W11 2RS",5,5,5,-0.19658800000000,51.51469100000000
K J Food and Wine Ltd,730738,Retailers - other,2015-02-10,3,2 Addison Avenue,LONDON,W11 4QR,10,10,10,-0.21194500000000,51.50639300000000
Kai Catering Ltd,568943,Other catering premises,2016-05-26,4,UNIT 7,The Westway Centre,"69 St Mark's Road, LONDON, W10 6JG",5,10,5,-0.21440000000000,51.51621400000000
Kamayansa,333833,Restaurant/Cafe/Canteen,2016-06-27,2,12 Kenway Road,LONDON,SW5 0RR,10,15,10,-0.19316500000000,51.49303000000000
Kappa Japanese Restaurant,333736,Restaurant/Cafe/Canteen,2015-04-22,4,Basement And Ground Floor,139 Earl's Court Road,"LONDON, SW5 9RH",5,10,5,-0.19437200000000,51.49347100000000
Kaydees Just Patties,894381,Other catering premises,2016-08-24,5,,,,5,5,5,,
Ken Persaud,865455,Other catering premises,2016-04-01,5,Notting Hill Community Church,182B Kensington Park Road,"LONDON, W11 2ES",5,5,5,-0.20559400000000,51.51547700000000
Kens Grocery & Off-Licence,455561,Retailers - other,2015-01-12,4,5-7 Dalgarno Gardens,LONDON,W10 5LL,5,10,5,-0.22666800000000,51.52209200000000
Kensal Community Centre,333575,Pub/bar/nightclub,2014-06-24,4,177 Kensal Road,LONDON,W10 5BJ,5,5,10,-0.20751800000000,51.52557800000000
Kensington & Chelsea Foodbank,815006,Distributors/Transporters,2015-12-22,Exempt,St Luke's Church,Redcliffe Square,"LONDON,",,,,-0.18985500000000,51.48822200000000
Kensington Aldridge Academy,732260,School/college/university,2015-01-14,5,1 Silchester Road,#Error,ndon W10 6EX,0,5,0,,
Kensington and Chelsea College,489739,School/college/university,2014-10-01,4,#Error,#Error,#Error,5,0,10,,
Kensington Close Hotel,333450,Restaurant/Cafe/Canteen,2015-06-15,3,Wright's Lane,London,W8 5SP,10,10,10,-0.19265900000000,51.49999100000000
Kensington Coffee,853764,Restaurant/Cafe/Canteen,2016-03-15,5,45 Kensington Church Street,LONDON,W8 4BA,0,5,5,-0.19345900000000,51.50417600000000
Kensington Court Hotel,334669,Hotel/bed & breakfast/guest house,2015-06-01,5,33-35 Nevern Place,LONDON,SW5 9NP,5,5,0,-0.19604800000000,51.49262400000000
Kensington Creperie and Cremerie,776003,Restaurant/Cafe/Canteen,2016-05-09,5,2 Exhibition Road,LONDON,SW7 2HF,5,5,0,-0.17319400000000,51.49495900000000
Kensington Day Centre,653938,Hospitals/Childcare/Caring Premises,2016-02-08,5,James Hill House,196-200 Kensal Road,"LONDON, W10 5BS",0,0,5,-0.20820500000000,51.52606500000000
Kensington Food and Wine,334508,Retailers - other,2016-01-12,3,11B Russell Gardens,LONDON,W14 8EZ,10,10,10,-0.21122800000000,51.50005100000000
Kensington Garden Cafe,334913,Restaurant/Cafe/Canteen,2016-02-16,5,Kensington Gardens Cafe,The Broad Walk,"LONDON, W2 4RU",5,5,5,-0.18840300000000,51.50995200000000
Kensington House Hotel,333428,Hotel/bed & breakfast/guest house,2016-06-15,3,15-16 Prince Of Wales Terrace,LONDON,W8 5PQ,5,10,10,-0.18644300000000,51.50122600000000
Kensington House Nursery School,716715,Hospitals/Childcare/Caring Premises,2016-01-15,4,St Philip's Church,Earl's Court Road,"LONDON, W8 6QH",0,0,10,-0.19575300000000,51.49533600000000
Kensington Park Hotel,576895,Pub/bar/nightclub,2015-06-02,3,PUBLIC HOUSE,139 Ladbroke Grove,"LONDON, W10 6HJ",10,10,10,-0.21030900000000,51.51726600000000
Kensington Place,333776,Restaurant/Cafe/Canteen,2015-11-19,5,201-207 Kensington Church Street,LONDON,W8 7LX,0,5,5,-0.19538000000000,51.50842300000000
Kensington Rooms,334596,Hotel/bed & breakfast/guest house,2014-10-29,5,131-137 Cromwell Road,LONDON,SW7 4DU,5,5,5,-0.18752200000000,51.49438100000000
Kensington Square Kitchen,333714,Restaurant/Cafe/Canteen,2016-08-22,5,9 Kensington Square,LONDON,W8 5EP,5,5,5,-0.18924200000000,51.50078400000000
Kensington Suite Hotel,333743,Hotel/bed & breakfast/guest house,2014-11-11,4,128 Holland Road,LONDON,W14 8BD,5,10,0,-0.21215000000000,51.50154000000000
Kentucky Fried Chicken,334392,Restaurant/Cafe/Canteen,2015-09-09,4,44 Notting Hill Gate,LONDON,W11 3HX,0,10,5,-0.19464500000000,51.50952700000000
Kentucky Fried Chicken,727858,Restaurant/Cafe/Canteen,2015-01-28,5,81 Gloucester Road,LONDON,SW7 4SS,0,5,0,-0.18212500000000,51.49424400000000
Kentucky Fried Chicken,727859,Restaurant/Cafe/Canteen,2016-08-15,3,Ground Floor,173-175 Earl's Court Road,"LONDON, SW5 9RF",5,10,10,-0.19346900000000,51.49261200000000
Khan's Of Kensington,334494,Restaurant/Cafe/Canteen,2016-04-20,5,3 Harrington Road,LONDON,SW7 3ES,5,5,5,-0.17516400000000,51.49396500000000
Khobkhun Restaurant,334515,Restaurant/Cafe/Canteen,2016-03-04,3,9A Gloucester Road,LONDON,SW7 4PP,10,10,5,-0.18345100000000,51.49895000000000
